name,code,latitude,longitude,saturation
Cilandak,JKT-S-CLK-01,-6.2850,106.7920,78
Jagakarsa,JKT-S-JGK-02,-6.3400,106.8250,92
Kebayoran Baru,JKT-S-KBB-03,-6.2420,106.7830,82
Kebayoran Lama,JKT-S-KBL-04,-6.2500,106.7750,88
Mampang Prapatan,JKT-S-MPP-05,-6.2470,106.8250,74
Pancoran,JKT-S-PCR-06,-6.2480,106.8400,68
Pasar Minggu,JKT-S-PMG-07,-6.2850,106.8450,71
Pesanggrahan,JKT-S-PSG-08,-6.2650,106.7600,85
Setiabudi,JKT-S-STB-09,-6.2190,106.8300,98
Tebet,JKT-S-TBT-10,-6.2270,106.8520,65
