[
    {
        "nama_tempat": "alfamart fatmawati 4",
        "rating_tempat": 3.7,
        "user_ratings_total": 24,
        "latitude": -6.2799761,
        "longitude": 106.79663,
        "alamat_tempat": "jl. rs. fatmawati raya no.4, rt.3/rw.10, cilandak bar., kota jakarta selatan",
        "place_id": "ChIJY8eo0erxaS4R661fqNiVJsw",
        "distance": 1371.4764334138258,
        "store": "Alfamart"
    },
    {
        "nama_tempat": "alfamart",
        "rating_tempat": 4.2,
        "user_ratings_total": 58,
        "latitude": -6.289572,
        "longitude": 106.8126228,
        "alamat_tempat": "jl. jeruk purut kel no.9 1/3, rt.1/rw.3, cilandak tim., kota jakarta selatan",
        "place_id": "ChIJf1MDyO3xaS4ReY13GALEP7U",
        "distance": 1732.431883606032,
        "store": "Alfamart"
    },
    {
        "nama_tempat": "alfamart",
        "rating_tempat": 4.1,
        "user_ratings_total": 101,
        "latitude": -6.303783,
        "longitude": 106.7814079,
        "alamat_tempat": "jl. karang tengah raya no.kel, rt.6/rw.4, lb. bulus, kota jakarta selatan",
        "place_id": "ChIJQfRfkSjuaS4RAiYQMIXjONI",
        "distance": 2161.862246589072,
        "store": "Alfamart"
    },
    {
        "nama_tempat": "alfamart",
        "rating_tempat": 3.8,
        "user_ratings_total": 16,
        "latitude": -6.2776194,
        "longitude": 106.801396,
        "alamat_tempat": "jl. cipete raya no.6, rt.6/rw.3 kel, cipete sel., kota jakarta selatan",
        "place_id": "ChIJvyXGa5PxaS4RGwSTqw4eyNI",
        "distance": 1697.0462071413172,
        "store": "Alfamart"
    },
    {
        "nama_tempat": "alfamart",
        "rating_tempat": 4.3,
        "user_ratings_total": 4,
        "latitude": -6.3001102,
        "longitude": 106.8147245,
        "alamat_tempat": "jl. raya cilandak kko kel no.9, rt.1/rw.8, ragunan, kota jakarta selatan",
        "place_id": "ChIJozpfomPvaS4RLUTcDjCMduQ",
        "distance": 2123.7943417340493,
        "store": "Alfamart"
    },
    {
        "nama_tempat": "alfamart pos fatmawati(1m1f)",
        "rating_tempat": 0,
        "user_ratings_total": 0,
        "latitude": -6.2943276,
        "longitude": 106.7947017,
        "alamat_tempat": "jl. rs. fatmawati raya no.10, rt.2/rw.4, cilandak bar., kota jakarta selatan",
        "place_id": "ChIJ07uYzrfxaS4RVVcyUC4vxQI",
        "distance": 355.7989438711728,
        "store": "Alfamart"
    },
    {
        "nama_tempat": "alfamart cilandak kko 2",
        "rating_tempat": 3.7,
        "user_ratings_total": 6,
        "latitude": -6.302779399999999,
        "longitude": 106.8144748,
        "alamat_tempat": "jl. raya cilandak kko no.1 c, rt.1/rw.8, ragunan, kota jakarta selatan",
        "place_id": "ChIJ8VidGwHuaS4RJsdTuMOoQrA",
        "distance": 2237.8675847768604,
        "store": "Alfamart"
    },
    {
        "nama_tempat": "sumber alfaria trijaya. pt (alfamart)",
        "rating_tempat": 1,
        "user_ratings_total": 2,
        "latitude": -6.3065871,
        "longitude": 106.7813887,
        "alamat_tempat": "jl. karang tengah raya no.29, rt.6/rw.4, lb. bulus, kota jakarta selatan",
        "place_id": "ChIJeZ_0Qy_uaS4RxNoVOQP_Nyc",
        "distance": 2361.0769489476907,
        "store": "Alfamart"
    },
    {
        "nama_tempat": "alfamart pondok labu",
        "rating_tempat": 4.4,
        "user_ratings_total": 83,
        "latitude": -6.305074599999999,
        "longitude": 106.794028,
        "alamat_tempat": "jl. pd. labu 1 no.40, rt.2/rw.7, pd. labu, kota jakarta selatan",
        "place_id": "ChIJ38bENAvvaS4R1LdbC5p-uDE",
        "distance": 1463.1015671021692,
        "store": "Alfamart"
    },
    {
        "nama_tempat": "alfamart",
        "rating_tempat": 4.3,
        "user_ratings_total": 11,
        "latitude": -6.3101879,
        "longitude": 106.7901479,
        "alamat_tempat": "jl. h. ipin kel no.45 - a, rt.11/rw.1, pd. labu, kota jakarta selatan",
        "place_id": "ChIJk3cbNCPuaS4RrWMFJhBGcY0",
        "distance": 2136.161944658769,
        "store": "Alfamart"
    },
    {
        "nama_tempat": "alfamart",
        "rating_tempat": 4.6,
        "user_ratings_total": 5,
        "latitude": -6.2962773,
        "longitude": 106.7897248,
        "alamat_tempat": "jl. lebak bulus 1 rt 3/4 kel, rt.3/rw.4, cilandak bar., kota jakarta selatan",
        "place_id": "ChIJCx-hv97xaS4R-d86cMw_-Vs",
        "distance": 936.274201322126,
        "store": "Alfamart"
    },
    {
        "nama_tempat": "bright by alfamart",
        "rating_tempat": 0,
        "user_ratings_total": 0,
        "latitude": -6.3037727,
        "longitude": 106.7821517,
        "alamat_tempat": "jl. karang tengah raya no.71, rt.7/rw.4, lb. bulus, kota jakarta selatan",
        "place_id": "ChIJx7rEgOnvaS4REZVEtk4z2X4",
        "distance": 2095.3979127366147,
        "store": "Alfamart"
    },
    {
        "nama_tempat": "alfamart",
        "rating_tempat": 3.8,
        "user_ratings_total": 23,
        "latitude": -6.282293699999999,
        "longitude": 106.7923652,
        "alamat_tempat": "jl. terogong raya no.kel, rt.9/rw.10, cilandak bar., kota jakarta selatan",
        "place_id": "ChIJh6MqthnxaS4RX-VZKA02g-s",
        "distance": 1233.591630518369,
        "store": "Alfamart"
    },
    {
        "nama_tempat": "alfamart",
        "rating_tempat": 0,
        "user_ratings_total": 0,
        "latitude": -6.2929597,
        "longitude": 106.803038,
        "alamat_tempat": "sovereign plaza, gedung, jl. tb simatupang kel no.kav.36, rt.2/rw.2, west cilandak, south jakarta city",
        "place_id": "ChIJqZkyc27xaS4R5CzWGNuI-sc",
        "distance": 650.5316998826939,
        "store": "Alfamart"
    },
    {
        "nama_tempat": "alfamart",
        "rating_tempat": 0,
        "user_ratings_total": 0,
        "latitude": -6.2904353,
        "longitude": 106.7954148,
        "alamat_tempat": "jl. rs. fatmawati raya kel no.33, rt. 01/09, rt.1/rw.9, cilandak bar., kota jakarta selatan",
        "place_id": "ChIJTYWeG7_xaS4RP-aI5kJQ4Rw",
        "distance": 285.2599251691404,
        "store": "Alfamart"
    },
    {
        "nama_tempat": "alfamart",
        "rating_tempat": 4.3,
        "user_ratings_total": 125,
        "latitude": -6.2927034,
        "longitude": 106.8100407,
        "alamat_tempat": "jl. tb simatupang kel no.31, rt.2/rw.1, cilandak tim., kota jakarta selatan",
        "place_id": "ChIJny3gdfzxaS4RUrQCDUZDSHE",
        "distance": 1421.0426679654065,
        "store": "Alfamart"
    },
    {
        "nama_tempat": "alfamart",
        "rating_tempat": 4.2,
        "user_ratings_total": 239,
        "latitude": -6.3083256,
        "longitude": 106.7978603,
        "alamat_tempat": "jl. pinang raya kel no.6, rt.2/rw.2, pd. labu, kota jakarta selatan",
        "place_id": "ChIJgwgjsBnuaS4ROK7tEhrHbHM",
        "distance": 1783.784950533187,
        "store": "Alfamart"
    },
    {
        "nama_tempat": "alfamart cilandak kko 3",
        "rating_tempat": 4.4,
        "user_ratings_total": 63,
        "latitude": -6.309416199999999,
        "longitude": 106.8138852,
        "alamat_tempat": "jl. cilandak kko no.1 a rt.014/08, cilandak ragunan rt.1, rt.14/rw.7, ragunan, south jakarta city",
        "place_id": "ChIJa8XPd0DvaS4RSIXi_ygrEaA",
        "distance": 2651.069636417224,
        "store": "Alfamart"
    },
    {
        "nama_tempat": "alfamart",
        "rating_tempat": 0,
        "user_ratings_total": 0,
        "latitude": -6.2795082,
        "longitude": 106.8072247,
        "alamat_tempat": "prc4+5ww, rt.6/rw.11, west cilandak, south jakarta city",
        "place_id": "ChIJg1z4LdjxaS4RtLCmQRpbnE0",
        "distance": 1803.467187256337,
        "store": "Alfamart"
    },
    {
        "nama_tempat": "alfamart",
        "rating_tempat": 3.8,
        "user_ratings_total": 22,
        "latitude": -6.2844107,
        "longitude": 106.7809859,
        "alamat_tempat": "pondok pinang, south jakarta city",
        "place_id": "ChIJERDDt8jxaS4RaCqImp2dRvo",
        "distance": 1994.159995078084,
        "store": "Alfamart"
    },
    {
        "nama_tempat": "alfamart",
        "rating_tempat": 3.6,
        "user_ratings_total": 14,
        "latitude": -6.2730548,
        "longitude": 106.8150264,
        "alamat_tempat": "jl.kemang selatan x11, kel, rt.11/rw.4, cilandak tim., kota jakarta selatan",
        "place_id": "ChIJXcA3nYnxaS4RsNTOqAWbAAw",
        "distance": 2909.4224801885225,
        "store": "Alfamart"
    },
    {
        "nama_tempat": "alfamart",
        "rating_tempat": 4.4,
        "user_ratings_total": 58,
        "latitude": -6.311102099999999,
        "longitude": 106.7857304,
        "alamat_tempat": "jl. karang tengah i kel no.2a, rt.3/rw.8, lb. bulus, kota jakarta selatan",
        "place_id": "ChIJHUbBKDvuaS4RTSYAiwoXKDw",
        "distance": 2444.6567203401096,
        "store": "Alfamart"
    },
    {
        "nama_tempat": "alfamart muhasyim",
        "rating_tempat": 4.5,
        "user_ratings_total": 38,
        "latitude": -6.287512299999999,
        "longitude": 106.7906552,
        "alamat_tempat": "jl. kh muhasim raya no.9, rw.6, cilandak bar., kota jakarta selatan",
        "place_id": "ChIJ7TD6i8HxaS4R7XtoeIg2qwc",
        "distance": 897.0981014279812,
        "store": "Alfamart"
    },
    {
        "nama_tempat": "alfamart",
        "rating_tempat": 0,
        "user_ratings_total": 0,
        "latitude": -6.3105462,
        "longitude": 106.7937534,
        "alamat_tempat": "jl. pd. labu raya no.7, rw.1, pd. labu, kota jakarta selatan",
        "place_id": "ChIJmcOA6EXvaS4RQqMPIIRVwRA",
        "distance": 2064.407842660816,
        "store": "Alfamart"
    },
    {
        "nama_tempat": "alfamart",
        "rating_tempat": 0,
        "user_ratings_total": 0,
        "latitude": -6.266535999999999,
        "longitude": 106.8103135,
        "alamat_tempat": "jl. pelita no.99a, rt.8/rw.7, cipete utara, kota jakarta selatan",
        "place_id": "ChIJI33nWifxaS4RzKQwmLH81wY",
        "distance": 979.9562346908624,
        "store": "Alfamart"
    },
    {
        "nama_tempat": "alfamart",
        "rating_tempat": 4.2,
        "user_ratings_total": 17,
        "latitude": -6.2542811,
        "longitude": 106.8012815,
        "alamat_tempat": "jl. darmawangsa vi no.45, rt, rt.5/rw.1, pulo, kota jakarta selatan",
        "place_id": "ChIJubtXt3bxaS4RG8SDqsnSF-U",
        "distance": 1941.0691940598103,
        "store": "Alfamart"
    },
    {
        "nama_tempat": "alfamart",
        "rating_tempat": 4.6,
        "user_ratings_total": 5,
        "latitude": -6.2600554,
        "longitude": 106.796534,
        "alamat_tempat": "jl. fatmawati raya no.kel, rt.4/rw.6, cilandak bar., kota jakarta selatan",
        "place_id": "ChIJXTKX4rjxaS4RKHvkQIrJHpY",
        "distance": 1478.405291409385,
        "store": "Alfamart"
    },
    {
        "nama_tempat": "alfamart",
        "rating_tempat": 4.6,
        "user_ratings_total": 16,
        "latitude": -6.267619600000001,
        "longitude": 106.7970639,
        "alamat_tempat": "jl. rs. fatmawati raya kel no.17 rt 002/002, rt.2/rw.2, gandaria sel., kota jakarta selatan",
        "place_id": "ChIJG1OrTJjxaS4Rh-es9t_IY2w",
        "distance": 802.4056173467777,
        "store": "Alfamart"
    },
    {
        "nama_tempat": "alfamart raya radio dalam",
        "rating_tempat": 0,
        "user_ratings_total": 0,
        "latitude": -6.2623865,
        "longitude": 106.7887372,
        "alamat_tempat": "jl. radio dalam raya no.14d, rt.7/rw.10, gandaria utara, kota jakarta selatan",
        "place_id": "ChIJJ5iWv67xaS4RNxDBDbF5rJs",
        "distance": 1891.1059837217283,
        "store": "Alfamart"
    },
    {
        "nama_tempat": "alfamart mangga raya",
        "rating_tempat": 4.6,
        "user_ratings_total": 45,
        "latitude": -6.2706697,
        "longitude": 106.7969812,
        "alamat_tempat": "rt.1/rw.4, gandaria sel., kota jakarta selatan",
        "place_id": "ChIJjRUYeR_xaS4RGqLMHkq13co",
        "distance": 683.7668121037992,
        "store": "Alfamart"
    },
    {
        "nama_tempat": "alfamart",
        "rating_tempat": 4.3,
        "user_ratings_total": 153,
        "latitude": -6.2553617,
        "longitude": 106.790579,
        "alamat_tempat": "jl. radio dalam raya i no.kel, rt.3/rw.8, gandaria utara, kota jakarta selatan",
        "place_id": "ChIJJ1zO0dPxaS4RjfHBVEeJ5eE",
        "distance": 2278.22834301927,
        "store": "Alfamart"
    },
    {
        "nama_tempat": "alfamart",
        "rating_tempat": 4.4,
        "user_ratings_total": 24,
        "latitude": -6.2572531,
        "longitude": 106.8177386,
        "alamat_tempat": "jl. kemang utara, no. 12 d-e, rt. 006/005, kel, rt.6/rw.1, bangka, kota jakarta selatan",
        "place_id": "ChIJtQRU4H_xaS4R4f3Hqd6dnFE",
        "distance": 2276.570186583748,
        "store": "Alfamart"
    },
    {
        "nama_tempat": "alfamart",
        "rating_tempat": 4.1,
        "user_ratings_total": 68,
        "latitude": -6.259331,
        "longitude": 106.789079,
        "alamat_tempat": "jl. radio dalam raya kel no.86, rt.5/rw.14, gandaria utara, kota jakarta selatan",
        "place_id": "ChIJ4x6Kt6DxaS4RTzwpsJlYZ8Q",
        "distance": 2067.08483416384,
        "store": "Alfamart"
    },
    {
        "nama_tempat": "alfamart yado 3",
        "rating_tempat": 4,
        "user_ratings_total": 4,
        "latitude": -6.255731399999999,
        "longitude": 106.790674,
        "alamat_tempat": "rt.2/rw.8, gandaria utara, kota jakarta selatan",
        "place_id": "ChIJqza5lwvxaS4RLUPjdPF0cVI",
        "distance": 2239.245513715492,
        "store": "Alfamart"
    },
    {
        "nama_tempat": "alfamart",
        "rating_tempat": 4.5,
        "user_ratings_total": 24,
        "latitude": -6.259575099999999,
        "longitude": 106.8022096,
        "alamat_tempat": "jl. damai v rt. 01 kel, rt.2/rw.8, cipete utara, kota jakarta selatan",
        "place_id": "ChIJ-zEskJ3xaS4R_EqzP6LK7NA",
        "distance": 1345.608134952262,
        "store": "Alfamart"
    },
    {
        "nama_tempat": "alfamart petogogan raya",
        "rating_tempat": 4.6,
        "user_ratings_total": 96,
        "latitude": -6.254885799999999,
        "longitude": 106.796434,
        "alamat_tempat": "jl. petogogan ii no.15a-b, jl. petogogan ii, rt.8/rw.6, pulo, south jakarta city",
        "place_id": "ChIJs-iJX73xaS4RJlH2mmqlobE",
        "distance": 2003.4520960911648,
        "store": "Alfamart"
    },
    {
        "nama_tempat": "alfamart",
        "rating_tempat": 4.3,
        "user_ratings_total": 76,
        "latitude": -6.267047499999999,
        "longitude": 106.792991,
        "alamat_tempat": "jl. madrasah kel no.48, rt.8/rw.1, gandaria sel., kota jakarta selatan",
        "place_id": "ChIJ-xBaWJ_xaS4RSieZKuw5ftg",
        "distance": 1227.6498634737472,
        "store": "Alfamart"
    },
    {
        "nama_tempat": "alfamart",
        "rating_tempat": 3.3,
        "user_ratings_total": 3,
        "latitude": -6.2657246,
        "longitude": 106.7998702,
        "alamat_tempat": "jl. abdul majid raya kel no.6a, rt.11/rw.2, cipete utara, kota jakarta selatan",
        "place_id": "ChIJw8JIYpnxaS4Rk_cRQR3bxvY",
        "distance": 748.2956896524918,
        "store": "Alfamart"
    },
    {
        "nama_tempat": "sumber alfaria trijaya. pt (alfamart)",
        "rating_tempat": 5,
        "user_ratings_total": 4,
        "latitude": -6.2670737,
        "longitude": 106.8019836,
        "alamat_tempat": "jl. abdul majid raya no.33, rt.11/rw.7, cipete utara, kota jakarta selatan",
        "place_id": "ChIJu_W4zZvxaS4R-LlOuR9RWhE",
        "distance": 522.7674388291226,
        "store": "Alfamart"
    },
    {
        "nama_tempat": "alfamart",
        "rating_tempat": 4.6,
        "user_ratings_total": 72,
        "latitude": -6.277224899999999,
        "longitude": 106.8204814,
        "alamat_tempat": "jl. ampera raya no. 120a, rt. 002/010 kel, rt.2/rw.10, ragunan, kota jakarta selatan",
        "place_id": "ChIJP1_Dhf3zaS4Rusdc7wMlXd8",
        "distance": 2019.998938107808,
        "store": "Alfamart"
    },
    {
        "nama_tempat": "alfamart",
        "rating_tempat": 4,
        "user_ratings_total": 2,
        "latitude": -6.253431399999999,
        "longitude": 106.8216615,
        "alamat_tempat": "jl. bangka xi c kel no.26, rt.11/rw.10, pela mampang, kota jakarta selatan",
        "place_id": "ChIJ87K7nWvzaS4Rle3PP96wwFg",
        "distance": 2883.693424664721,
        "store": "Alfamart"
    },
    {
        "nama_tempat": "alfamart",
        "rating_tempat": 4.3,
        "user_ratings_total": 246,
        "latitude": -6.2523984,
        "longitude": 106.8145319,
        "alamat_tempat": "jl. bangka raya kel no.101, rt.2/rw.1, pela mampang, kota jakarta selatan",
        "place_id": "ChIJdQvH69nxaS4RbrLohgHukIQ",
        "distance": 2485.90397663458,
        "store": "Alfamart"
    },
    {
        "nama_tempat": "alfamart",
        "rating_tempat": 4,
        "user_ratings_total": 20,
        "latitude": -6.258272300000001,
        "longitude": 106.7839248,
        "alamat_tempat": "jl. tanah kusir ii no.65, rt.3/rw.011 kel, kby. lama sel., kota jakarta selatan",
        "place_id": "ChIJEzQd4evxaS4RbvtHCITy4Jw",
        "distance": 2588.062258002626,
        "store": "Alfamart"
    },
    {
        "nama_tempat": "alfamart",
        "rating_tempat": 4.2,
        "user_ratings_total": 123,
        "latitude": -6.2547162,
        "longitude": 106.7836782,
        "alamat_tempat": "jl.darma putra raya rt 1/7 kel, rt.1/rw.7, kby. lama sel., kota jakarta selatan",
        "place_id": "ChIJuayCtgjxaS4RBl05CpaSF3Q",
        "distance": 2854.2283893897493,
        "store": "Alfamart"
    },
    {
        "nama_tempat": "alfamart",
        "rating_tempat": 4.6,
        "user_ratings_total": 75,
        "latitude": -6.2521128,
        "longitude": 106.783147,
        "alamat_tempat": "jl. praja dalam k kel, rt.12/rw.2, kby. lama sel., kota jakarta selatan",
        "place_id": "ChIJFy0cH3DxaS4RqAsb1UlHVzU",
        "distance": 3094.4595174249325,
        "store": "Alfamart"
    },
    {
        "nama_tempat": "di depan alfamart",
        "rating_tempat": 5,
        "user_ratings_total": 1,
        "latitude": -6.2665447,
        "longitude": 106.7971267,
        "alamat_tempat": "jl. rs. fatmawati raya no.33, rw.2, gandaria sel., kota jakarta selatan",
        "place_id": "ChIJaX-B5jjxaS4RJ2YNF7-2yC0",
        "distance": 869.4467177725185,
        "store": "Alfamart"
    },
    {
        "nama_tempat": "alfamart kostrad darma putra",
        "rating_tempat": 4.5,
        "user_ratings_total": 103,
        "latitude": -6.2546937,
        "longitude": 106.7837214,
        "alamat_tempat": "jl. darma putra raya no.44, rt.1/rw.7, kby. lama sel., kota jakarta selatan",
        "place_id": "ChIJC8pc2WXxaS4RarJ-FhWCz1c",
        "distance": 2852.293530107412,
        "store": "Alfamart"
    },
    {
        "nama_tempat": "alfamart kemang selatan raya",
        "rating_tempat": 4.8,
        "user_ratings_total": 24,
        "latitude": -6.273941199999999,
        "longitude": 106.8189054,
        "alamat_tempat": "jl. kemang sel. no.4, rw.4, raya, kota jakarta selatan",
        "place_id": "ChIJoyofGuvzaS4RM0Dyh9j3fPo",
        "distance": 1766.704916512931,
        "store": "Alfamart"
    },
    {
        "nama_tempat": "mitra ukm alfamart",
        "rating_tempat": 0,
        "user_ratings_total": 0,
        "latitude": -6.2516093,
        "longitude": 106.7831185,
        "alamat_tempat": "jl. praja dalam f no.11, rt.11/rw.2, south kebayoran lama, south jakarta city",
        "place_id": "ChIJGU1_dw_xaS4RKV_Wngx69Ic",
        "distance": 3136.2249848670194,
        "store": "Alfamart"
    },
    {
        "nama_tempat": "alfamart",
        "rating_tempat": 4.4,
        "user_ratings_total": 26,
        "latitude": -6.257043599999999,
        "longitude": 106.7772368,
        "alamat_tempat": "jl. raya ciputat no.3 b rt.003 kel, rt.3/rw.10, kby. lama sel., kota jakarta selatan",
        "place_id": "ChIJGWL41wbxaS4R-IwO3XiRIaU",
        "distance": 2539.01455607908,
        "store": "Alfamart"
    },
    {
        "nama_tempat": "alfamart",
        "rating_tempat": 4.2,
        "user_ratings_total": 48,
        "latitude": -6.277399399999999,
        "longitude": 106.7765074,
        "alamat_tempat": "jl. bukit hijau i no.kel, rt.1/rw.13, pd. pinang, kota jakarta selatan",
        "place_id": "ChIJhyWzK7TxaS4RGL9d7agofZc",
        "distance": 2253.337350714632,
        "store": "Alfamart"
    },
    {
        "nama_tempat": "alfamart",
        "rating_tempat": 4.5,
        "user_ratings_total": 264,
        "latitude": -6.2506507,
        "longitude": 106.793953,
        "alamat_tempat": "jl. petogogan i, rt. 003/011 kel, rt.1/rw.1, petogogan, kota jakarta selatan",
        "place_id": "ChIJT0UQ-xzxaS4Rbkmahws1Wiw",
        "distance": 2227.697296605524,
        "store": "Alfamart"
    },
    {
        "nama_tempat": "alfamart pondok indah 1",
        "rating_tempat": 4.3,
        "user_ratings_total": 7,
        "latitude": -6.2874722,
        "longitude": 106.7768054,
        "alamat_tempat": "jl. bukit hijau i no.12, rt.012/rw.13, pd. pinang, kota jakarta selatan",
        "place_id": "ChIJQUQy07XxaS4RjrvEhegdQm8",
        "distance": 2807.9890397134527,
        "store": "Alfamart"
    },
    {
        "nama_tempat": "alfamart",
        "rating_tempat": 5,
        "user_ratings_total": 4,
        "latitude": -6.2534671,
        "longitude": 106.7755935,
        "alamat_tempat": "jl. bintaro raya no.21a, rt.11/rw.10, kby. lama sel., kota jakarta selatan",
        "place_id": "ChIJcydB66nxaS4RsYN_8dfR-hc",
        "distance": 2929.0640848539965,
        "store": "Alfamart"
    },
    {
        "nama_tempat": "alfamart",
        "rating_tempat": 4.6,
        "user_ratings_total": 56,
        "latitude": -6.250438,
        "longitude": 106.7817332,
        "alamat_tempat": "jl. sultan iskandar muda no.72, rt.10/rw.2, kby. lama sel., kota jakarta selatan",
        "place_id": "ChIJP3zxrTPxaS4R58_AUM2UGGA",
        "distance": 2723.72847151265,
        "store": "Alfamart"
    },
    {
        "nama_tempat": "alfamart",
        "rating_tempat": 0,
        "user_ratings_total": 0,
        "latitude": -6.292159799999999,
        "longitude": 106.7715761,
        "alamat_tempat": "pq5c+4jm, rt.4/rw.2, lebak bulus, south jakarta city",
        "place_id": "ChIJe_KhtJXxaS4Ro2d18maz9HI",
        "distance": 1499.6428755374689,
        "store": "Alfamart"
    },
    {
        "nama_tempat": "alfamart batan",
        "rating_tempat": 0,
        "user_ratings_total": 0,
        "latitude": -6.3002921,
        "longitude": 106.776064,
        "alamat_tempat": "jl. lb. bulus no.48, rt.3/rw.4, lb. bulus, kota jakarta selatan",
        "place_id": "ChIJbd-MJCruaS4RSb7vFayLGfQ",
        "distance": 491.94612310667816,
        "store": "Alfamart"
    },
    {
        "nama_tempat": "alfamart",
        "rating_tempat": 3.9,
        "user_ratings_total": 109,
        "latitude": -6.312744899999999,
        "longitude": 106.7967237,
        "alamat_tempat": "jl. margasatwa no.1, rt.1/rw.2 kel, pd. labu, kota jakarta selatan",
        "place_id": "ChIJ9-f0rBfuaS4RflvVgq5gTTo",
        "distance": 2184.8712609573768,
        "store": "Alfamart"
    },
    {
        "nama_tempat": "alfamart",
        "rating_tempat": 5,
        "user_ratings_total": 1,
        "latitude": -6.2829676,
        "longitude": 106.7717234,
        "alamat_tempat": "jl. ciputat raya, jl. pupan kel no.1, rw.8, pd. pinang, kota jakarta selatan",
        "place_id": "ChIJUSEHg7TxaS4RsI5kfN_QGzs",
        "distance": 2398.975511510861,
        "store": "Alfamart"
    },
    {
        "nama_tempat": "alfamart",
        "rating_tempat": 4.3,
        "user_ratings_total": 3,
        "latitude": -6.288993199999999,
        "longitude": 106.7738201,
        "alamat_tempat": "pq6f+cg4, ruko pasar jumat, jl. nasional 12, rt.10/rw.7, pd. pinang, kota jakarta selatan",
        "place_id": "ChIJQ8QJ52vxaS4R9ByNQALudjw",
        "distance": 1690.565132745014,
        "store": "Alfamart"
    },
    {
        "nama_tempat": "alfamart",
        "rating_tempat": 4.3,
        "user_ratings_total": 59,
        "latitude": -6.313207200000001,
        "longitude": 106.8032178,
        "alamat_tempat": "jl. margasatwa raya no 14a-c, kel, rt.1/rw.3, pd. labu, kota jakarta selatan",
        "place_id": "ChIJCz-ABPPvaS4RvH3YwYy3D3U",
        "distance": 908.9256787260508,
        "store": "Alfamart"
    },
    {
        "nama_tempat": "alfamart",
        "rating_tempat": 4,
        "user_ratings_total": 1,
        "latitude": -6.3274385,
        "longitude": 106.8165763,
        "alamat_tempat": "jl. gandaria ii kel no.rt. 006/02, rt.6/rw.2, jagakarsa, kota jakarta selatan",
        "place_id": "ChIJNaff4frvaS4Rv-sXFlDoV8I",
        "distance": 3071.4834076266047,
        "store": "Alfamart"
    },
    {
        "nama_tempat": "alfamart",
        "rating_tempat": 4.4,
        "user_ratings_total": 99,
        "latitude": -6.3270311,
        "longitude": 106.8144222,
        "alamat_tempat": "jl.jagakarsa kp.kandang no.50, rt.6/rw.4, kel, kota jakarta selatan",
        "place_id": "ChIJVZkf7ijvaS4RohYfDKQq_TQ",
        "distance": 2876.314025157216,
        "store": "Alfamart"
    },
    {
        "nama_tempat": "alfamart margasatwa raya",
        "rating_tempat": 4.6,
        "user_ratings_total": 54,
        "latitude": -6.3130741,
        "longitude": 106.8004155,
        "alamat_tempat": "jl. margasatwa no.90, rt.8/rw.2, pd. labu, kota jakarta selatan",
        "place_id": "ChIJ46jSRZvvaS4ReMMdsz0r-Ls",
        "distance": 700.9436764795806,
        "store": "Alfamart"
    },
    {
        "nama_tempat": "alfamart cv. anis star",
        "rating_tempat": 4,
        "user_ratings_total": 12,
        "latitude": -6.3271938,
        "longitude": 106.816634,
        "alamat_tempat": "jl. raya jagakarsa no.3, rt.6/rw.2, jagakarsa, kota jakarta selatan",
        "place_id": "ChIJGQvZVnHuaS4R5-987_ViIy0",
        "distance": 3056.526829541795,
        "store": "Alfamart"
    },
    {
        "nama_tempat": "alfamart",
        "rating_tempat": 4.8,
        "user_ratings_total": 13,
        "latitude": -6.247626299999999,
        "longitude": 106.7785018,
        "alamat_tempat": "jl. ciputat raya, rt. 8/8 kel, rt.8/rw.8, kby. lama sel., kota jakarta selatan",
        "place_id": "ChIJMyzoc8PxaS4Rx4Pb25aRaVI",
        "distance": 0,
        "store": "Alfamart"
    },
    {
        "nama_tempat": "alfamart",
        "rating_tempat": 4.4,
        "user_ratings_total": 217,
        "latitude": -6.2495325,
        "longitude": 106.7836804,
        "alamat_tempat": "jl. praja dalam k kel, rt.4/rw.12, kby. lama sel., kota jakarta selatan",
        "place_id": "ChIJd2c5ZS3xaS4R0Hfe_IqDLp0",
        "distance": 0,
        "store": "Alfamart"
    },
    {
        "nama_tempat": "alfamart",
        "rating_tempat": 4.2,
        "user_ratings_total": 283,
        "latitude": -6.2491889,
        "longitude": 106.8186279,
        "alamat_tempat": "jl. bangka ii kel no.1a, rt.8/rw.3, pela mampang, kota jakarta selatan",
        "place_id": "ChIJ-dormaPzaS4RlalyMly0C5M",
        "distance": 0,
        "store": "Alfamart"
    },
    {
        "nama_tempat": "alfamart ciputat",
        "rating_tempat": 5,
        "user_ratings_total": 2,
        "latitude": -6.2799786,
        "longitude": 106.7724433,
        "alamat_tempat": "jl. ciputat raya no.21, rt.1/rw.7, pd. pinang, kota jakarta selatan",
        "place_id": "ChIJVXFUeUHxaS4RWn11bqNkU6A",
        "distance": 0,
        "store": "Alfamart"
    },
    {
        "nama_tempat": "alfamart",
        "rating_tempat": 4.3,
        "user_ratings_total": 239,
        "latitude": -6.3267655,
        "longitude": 106.8215854,
        "alamat_tempat": "jl. raya jagakarsa, rt.2/rw.7, kel, kota jakarta selatan",
        "place_id": "ChIJz9mMD9ntaS4RZubt_6ybvOw",
        "distance": 0,
        "store": "Alfamart"
    },
    {
        "nama_tempat": "alfamart",
        "rating_tempat": 4.8,
        "user_ratings_total": 20,
        "latitude": -6.3286377,
        "longitude": 106.8244583,
        "alamat_tempat": "jl. raya jagakarsa no.2a, rt.9/rw.7, kel, kota jakarta selatan",
        "place_id": "ChIJWbkHhJ3taS4RYeZ0L7Xgo4Y",
        "distance": 1999.6895057418187,
        "store": "Alfamart"
    },
    {
        "nama_tempat": "alfamart",
        "rating_tempat": 4.2,
        "user_ratings_total": 97,
        "latitude": -6.3359894,
        "longitude": 106.8270017,
        "alamat_tempat": "jl. moch. kahfi ii kel no.23, rt.11/rw.8, srengseng sawah, kota jakarta selatan",
        "place_id": "ChIJe1YAOdLtaS4Rt7Ol21BHFN4",
        "distance": 2002.8309054783008,
        "store": "Alfamart"
    },
    {
        "nama_tempat": "alfamart",
        "rating_tempat": 0,
        "user_ratings_total": 0,
        "latitude": -6.352576699999999,
        "longitude": 106.8188851,
        "alamat_tempat": "jl. srengseng sawah kel no.18, rw.7, srengseng sawah, kota jakarta selatan",
        "place_id": "ChIJLdQeZIztaS4R-teqdeGZ2Aw",
        "distance": 1958.5286884664736,
        "store": "Alfamart"
    },
    {
        "nama_tempat": "alfamart",
        "rating_tempat": 4.2,
        "user_ratings_total": 35,
        "latitude": -6.346389599999999,
        "longitude": 106.8257072,
        "alamat_tempat": "jl.simpang tiga, jl. pratama kel no.22, rt.6/rw.6, srengseng sawah, kota jakarta selatan",
        "place_id": "ChIJcXskSobtaS4Rgle9vWyGMns",
        "distance": 2071.542393361264,
        "store": "Alfamart"
    },
    {
        "nama_tempat": "alfamart",
        "rating_tempat": 1,
        "user_ratings_total": 1,
        "latitude": -6.345517699999999,
        "longitude": 106.810441,
        "alamat_tempat": "jl. wr. sila kel no.48, rt.11/rw.5, ciganjur, kota jakarta selatan",
        "place_id": "ChIJLccxhA3vaS4R1CueIAoDZlE",
        "distance": 854.971877203588,
        "store": "Alfamart"
    },
    {
        "nama_tempat": "alfamart",
        "rating_tempat": 4.4,
        "user_ratings_total": 104,
        "latitude": -6.3492714,
        "longitude": 106.8016789,
        "alamat_tempat": "jl. m. khafi kel no.1, rt.015/rw.1, cipedak, kota jakarta selatan",
        "place_id": "ChIJ2ZJsw-bvaS4RPE2HSgHEYvc",
        "distance": 1494.328408122114,
        "store": "Alfamart"
    },
    {
        "nama_tempat": "alfamart",
        "rating_tempat": 4.3,
        "user_ratings_total": 85,
        "latitude": -6.341221600000001,
        "longitude": 106.8046813,
        "alamat_tempat": "jl. m. kahfi i no. 60, rt. 006 kel, rt.8/rw.6, ciganjur, kota jakarta selatan",
        "place_id": "ChIJ50-5vp3vaS4R4PP0-gOdOLY",
        "distance": 598.0595940118145,
        "store": "Alfamart"
    },
    {
        "nama_tempat": "alfamart srengseng sawah (eg47)",
        "rating_tempat": 4.8,
        "user_ratings_total": 12,
        "latitude": -6.3525632,
        "longitude": 106.8188433,
        "alamat_tempat": "utama rt.5/rw.7, srengseng sawah, jagakarsa, rt.5/rw.7, srengseng sawah, kota jakarta selatan",
        "place_id": "ChIJzdSRmyfsaS4Rtl298qGtaec",
        "distance": 1954.7060450483964,
        "store": "Alfamart"
    },
    {
        "nama_tempat": "alfamart",
        "rating_tempat": 4.2,
        "user_ratings_total": 102,
        "latitude": -6.3353411,
        "longitude": 106.8132835,
        "alamat_tempat": "jl. sadar raya no.kel, rt.2/rw.2, jagakarsa, kota jakarta selatan",
        "place_id": "ChIJyXE7tX7uaS4R_N1dj_5A7Lk",
        "distance": 557.194837348266,
        "store": "Alfamart"
    },
    {
        "nama_tempat": "alfamart",
        "rating_tempat": 4.5,
        "user_ratings_total": 99,
        "latitude": -6.348487899999999,
        "longitude": 106.8200177,
        "alamat_tempat": "jl. srengseng raya kel no.87, rt.2/rw.7, srengseng sawah, kota jakarta selatan",
        "place_id": "ChIJPxyLWijsaS4Rl6Ahgql2Zkc",
        "distance": 1689.5772647365343,
        "store": "Alfamart"
    },
    {
        "nama_tempat": "alfamart",
        "rating_tempat": 3.9,
        "user_ratings_total": 13,
        "latitude": -6.3519106,
        "longitude": 106.8104356,
        "alamat_tempat": "jl. timbul rt 1/3 kel, jl. timbul no.38, rt.1/rw.3, cipedak, kota jakarta selatan",
        "place_id": "ChIJa5D3PpvuaS4RmD22MJHORS4",
        "distance": 1558.851664473137,
        "store": "Alfamart"
    },
    {
        "nama_tempat": "alfamart",
        "rating_tempat": 4.3,
        "user_ratings_total": 119,
        "latitude": -6.3447007,
        "longitude": 106.8044728,
        "alamat_tempat": "jl. wr. sila kel no.261, rt.3/rw.4, ciganjur, kota jakarta selatan",
        "place_id": "ChIJn4GqwYjuaS4RkEZAhdWNiIU",
        "distance": 899.9639536986773,
        "store": "Alfamart"
    },
    {
        "nama_tempat": "alfamart",
        "rating_tempat": 4,
        "user_ratings_total": 12,
        "latitude": -6.3431267,
        "longitude": 106.8172234,
        "alamat_tempat": "jl.moch kahfi 2 rt 5/4 kel, jl. moch. kahfi ii no.2, rt.5/rw.4, ciganjur, kota jakarta selatan",
        "place_id": "ChIJwRkvJkbvaS4RV98hH2jg2jM",
        "distance": 1075.9207261395798,
        "store": "Alfamart"
    },
    {
        "nama_tempat": "alfamart",
        "rating_tempat": 4.7,
        "user_ratings_total": 86,
        "latitude": -6.3212652,
        "longitude": 106.8254171,
        "alamat_tempat": "jl ry jati padang 6 rt 4/4 kel, rt.11/rw.5, kebagusan, kota jakarta selatan",
        "place_id": "ChIJ60AxeGztaS4Ru2TlJfZ6_co",
        "distance": 2597.1095654757883,
        "store": "Alfamart"
    },
    {
        "nama_tempat": "alfamart",
        "rating_tempat": 4.4,
        "user_ratings_total": 39,
        "latitude": -6.3360353,
        "longitude": 106.8081282,
        "alamat_tempat": "jl. h. montong kel, rt.6/rw.2, ciganjur, kota jakarta selatan",
        "place_id": "ChIJcSF1kHzuaS4RmUi6Derkz0U",
        "distance": 234.7446755206281,
        "store": "Alfamart"
    },
    {
        "nama_tempat": "alfamart m. kafi 1",
        "rating_tempat": 4.3,
        "user_ratings_total": 27,
        "latitude": -6.354785,
        "longitude": 106.8104626,
        "alamat_tempat": "jl. moch. kahfi ii no.35, rt.4/rw.3, cipedak, kota jakarta selatan",
        "place_id": "ChIJf-XTUHHuaS4R3O2aD58Jejc",
        "distance": 1877.3273219319497,
        "store": "Alfamart"
    },
    {
        "nama_tempat": "alfamart jl.aselih",
        "rating_tempat": 4.2,
        "user_ratings_total": 52,
        "latitude": -6.3518666,
        "longitude": 106.8010337,
        "alamat_tempat": "jrx2+6cr, rt.7/rw.1, cipedak, south jakarta city",
        "place_id": "ChIJS129nNjvaS4RhFpkPRMENm4",
        "distance": 1778.2404874334366,
        "store": "Alfamart"
    },
    {
        "nama_tempat": "alfamart",
        "rating_tempat": 2,
        "user_ratings_total": 1,
        "latitude": -6.3409759,
        "longitude": 106.8275507,
        "alamat_tempat": "jl. raya desa putra no. 22, rt no.kel, rt.7/rw.5, srengseng sawah, kota jakarta selatan",
        "place_id": "ChIJozZ4F7HtaS4R1kONZ5ibbtU",
        "distance": 2078.535686905338,
        "store": "Alfamart"
    },
    {
        "nama_tempat": "alfamart",
        "rating_tempat": 0,
        "user_ratings_total": 0,
        "latitude": -6.357054,
        "longitude": 106.8095512,
        "alamat_tempat": "jl. srengseng sawah kel no.4, rt.9/rw.9, cipedak, kota jakarta selatan",
        "place_id": "ChIJQ72y0hzvaS4RX5dcmBsgyWU",
        "distance": 2123.4580476115034,
        "store": "Alfamart"
    },
    {
        "nama_tempat": "alfamart",
        "rating_tempat": 4.3,
        "user_ratings_total": 363,
        "latitude": -6.3390194,
        "longitude": 106.8285737,
        "alamat_tempat": "jl. desa putra raya no.3 kel, rw.5, srengseng sawah, kota jakarta selatan",
        "place_id": "ChIJAw3ltijtaS4RmcB7KA3NCio",
        "distance": 2167.6352384991,
        "store": "Alfamart"
    },
    {
        "nama_tempat": "alfamart",
        "rating_tempat": 3.7,
        "user_ratings_total": 11,
        "latitude": -6.3448658,
        "longitude": 106.8286053,
        "alamat_tempat": "jl. srengseng sawah kel no.rt 5/12, rt.5/rw.12, srengseng sawah, kota jakarta selatan",
        "place_id": "ChIJNeAy4i3saS4R2vlrs_RK_Qk",
        "distance": 2299.718209540563,
        "store": "Alfamart"
    },
    {
        "nama_tempat": "alfamart",
        "rating_tempat": 4.1,
        "user_ratings_total": 158,
        "latitude": -6.3271403,
        "longitude": 106.8293354,
        "alamat_tempat": "jl. klp. 3 no.49, rt.6/rw.3, kel, kota jakarta selatan",
        "place_id": "ChIJKUVCIj_taS4RPE3ln04fn_s",
        "distance": 2550.57535298514,
        "store": "Alfamart"
    },
    {
        "nama_tempat": "alfamart",
        "rating_tempat": 4.2,
        "user_ratings_total": 129,
        "latitude": -6.358035099999999,
        "longitude": 106.8116309,
        "alamat_tempat": "jl. srengseng sawah kel no.48 rt 2/9, rt.3/rw.9, srengseng sawah, kota jakarta selatan",
        "place_id": "ChIJO-fSOk7vaS4RCj8aV46LE6Q",
        "distance": 2250.665784234213,
        "store": "Alfamart"
    },
    {
        "nama_tempat": "alfamart",
        "rating_tempat": 1,
        "user_ratings_total": 1,
        "latitude": -6.3450368,
        "longitude": 106.8152846,
        "alamat_tempat": "jl. wr. sila no.36, rt.2/rw.5, ciganjur, kota jakarta selatan",
        "place_id": "ChIJXWJrkhPvaS4Rrveg9EepZfI",
        "distance": 1049.9579459658626,
        "store": "Alfamart"
    },
    {
        "nama_tempat": "alfamart",
        "rating_tempat": 4.5,
        "user_ratings_total": 97,
        "latitude": -6.3179633,
        "longitude": 106.8191259,
        "alamat_tempat": "jl. pepaya raya no.58, rt.12/rw.5, kel, kota jakarta selatan",
        "place_id": "ChIJW9l0OeDtaS4Rpqp-vEQlRxM",
        "distance": 2490.3886208952026,
        "store": "Alfamart"
    },
    {
        "nama_tempat": "alfamart royal residence",
        "rating_tempat": 4.6,
        "user_ratings_total": 73,
        "latitude": -6.3343032,
        "longitude": 106.8069313,
        "alamat_tempat": "mr84+7qf, rt.7/rw.2, ciganjur, south jakarta city",
        "place_id": "ChIJMU7G8APvaS4RPldwPHdkBVs",
        "distance": 466.3963383640638,
        "store": "Alfamart"
    },
    {
        "nama_tempat": "alfamart srengseng sawah 4 (eh83)",
        "rating_tempat": 4.3,
        "user_ratings_total": 15,
        "latitude": -6.357146999999999,
        "longitude": 106.8095228,
        "alamat_tempat": "jl. srengseng sawah no.1, rt.4/rw.9, srengseng sawah, kota jakarta selatan",
        "place_id": "ChIJ88BZcpnuaS4RE8o0nNn30ow",
        "distance": 1042.513280953978,
        "store": "Alfamart"
    },
    {
        "nama_tempat": "alfamart",
        "rating_tempat": 4.1,
        "user_ratings_total": 107,
        "latitude": -6.3629942,
        "longitude": 106.8021022,
        "alamat_tempat": "jl.moch kahfi i, gg. pedati selatan kel no.60, rt.6/rw.2, cipedak, kota jakarta selatan",
        "place_id": "ChIJ7ykmvmrvaS4RlZev4Fju-J8",
        "distance": 788.1573356787824,
        "store": "Alfamart"
    },
    {
        "nama_tempat": "alfamart",
        "rating_tempat": 4.3,
        "user_ratings_total": 162,
        "latitude": -6.3633345,
        "longitude": 106.8067338,
        "alamat_tempat": "jl. moch. kahfi ii kel no.24, rt.7/rw.3, cipedak, kota jakarta selatan",
        "place_id": "ChIJreD62aLuaS4RmuRbWickzPw",
        "distance": 1078.876848404274,
        "store": "Alfamart"
    },
    {
        "nama_tempat": "alfamart",
        "rating_tempat": 4.3,
        "user_ratings_total": 16,
        "latitude": -6.3389038,
        "longitude": 106.8344498,
        "alamat_tempat": "komp. sta universitas pancasila jl. raya lt agung kel, rt.1/rw.3, srengseng sawah, kota jakarta selatan",
        "place_id": "ChIJO9SLoXrtaS4R_qO4Q2eaGC0",
        "distance": 1983.440108350552,
        "store": "Alfamart"
    },
    {
        "nama_tempat": "alfamart",
        "rating_tempat": 4.4,
        "user_ratings_total": 172,
        "latitude": -6.310429000000001,
        "longitude": 106.8373362,
        "alamat_tempat": "jl. raya lenteng agung no.9 rt, rt.4/rw.1, lenteng agung, kota jakarta selatan",
        "place_id": "ChIJI4ismJftaS4RG7BjJdb_aTE",
        "distance": 2622.9453109916103,
        "store": "Alfamart"
    },
    {
        "nama_tempat": "alfamart lenteng agung 5",
        "rating_tempat": 3,
        "user_ratings_total": 4,
        "latitude": -6.3163063,
        "longitude": 106.8361512,
        "alamat_tempat": "jl. raya lenteng agung no.22, rt.5/rw.1, lenteng agung, kota jakarta selatan",
        "place_id": "ChIJDQ0fsc7taS4R3NlvyB-kvR0",
        "distance": 2094.662209304275,
        "store": "Alfamart"
    },
    {
        "nama_tempat": "alfamart",
        "rating_tempat": 4.5,
        "user_ratings_total": 73,
        "latitude": -6.333435799999999,
        "longitude": 106.835083,
        "alamat_tempat": "jl. lenteng agung barat no. 9, kel no.04, rt.2/rw.10, srengseng sawah, kota jakarta selatan",
        "place_id": "ChIJ13AKk4ftaS4RCuU8MrNt6NA",
        "distance": 1719.2892611088478,
        "store": "Alfamart"
    },
    {
        "nama_tempat": "alfamart",
        "rating_tempat": 4.4,
        "user_ratings_total": 68,
        "latitude": -6.316942099999999,
        "longitude": 106.8251017,
        "alamat_tempat": "jl. kebagusan raya kel, rt.2/rw.4, kebagusan, kota jakarta selatan",
        "place_id": "ChIJ5ecsNQftaS4R2Gym8QnVXUk",
        "distance": 1250.3522256242209,
        "store": "Alfamart"
    },
    {
        "nama_tempat": "alfamart",
        "rating_tempat": 3.7,
        "user_ratings_total": 11,
        "latitude": -6.3234492,
        "longitude": 106.8354947,
        "alamat_tempat": "jl. raya lenteng agung kel no.14, lenteng agung, kota jakarta selatan",
        "place_id": "ChIJlTB_4sPtaS4Rxc7ws3Uy_40",
        "distance": 1681.922248772634,
        "store": "Alfamart"
    },
    {
        "nama_tempat": "alfamart",
        "rating_tempat": 3.7,
        "user_ratings_total": 15,
        "latitude": -6.312712599999999,
        "longitude": 106.8257501,
        "alamat_tempat": "jl. raya jatipadang kel no.16, rt.7/rw.5, kebagusan, kota jakarta selatan",
        "place_id": "ChIJ-86bRuTtaS4Roa7AGvYD-sg",
        "distance": 1716.172651400322,
        "store": "Alfamart"
    },
    {
        "nama_tempat": "alfamart",
        "rating_tempat": 4.1,
        "user_ratings_total": 115,
        "latitude": -6.312118,
        "longitude": 106.838574,
        "alamat_tempat": "jl.tanjung barat sltn rt 1/2, kel, rt.1/rw.2, tj. bar., kota jakarta selatan",
        "place_id": "ChIJO7r69eztaS4R6-qTHsW9FZo",
        "distance": 2593.843767134577,
        "store": "Alfamart"
    },
    {
        "nama_tempat": "alfamart",
        "rating_tempat": 4.4,
        "user_ratings_total": 72,
        "latitude": -6.3243592,
        "longitude": 106.8300011,
        "alamat_tempat": "jl. joe klp. tiga, rt.2/rw.3, kel, kota jakarta selatan",
        "place_id": "ChIJYbi2VcPtaS4REBIUqS4H6nw",
        "distance": 1070.7556453987436,
        "store": "Alfamart"
    },
    {
        "nama_tempat": "alfamart",
        "rating_tempat": 4.8,
        "user_ratings_total": 16,
        "latitude": -6.3306239,
        "longitude": 106.8349623,
        "alamat_tempat": "stasiun kel, lenteng agung, south jakarta city",
        "place_id": "ChIJIwmT0tTtaS4R6hg8QgNw3WY",
        "distance": 1608.6293980723444,
        "store": "Alfamart"
    },
    {
        "nama_tempat": "alfamart ltg agung jagakarsa",
        "rating_tempat": 5,
        "user_ratings_total": 2,
        "latitude": -6.3283086,
        "longitude": 106.8342246,
        "alamat_tempat": "mrcm+mm5, rt.9/rw.4, lenteng agung, south jakarta city",
        "place_id": "ChIJ05wHln3taS4RfX09zv-hV4M",
        "distance": 1488.9603296654668,
        "store": "Alfamart"
    },
    {
        "nama_tempat": "alfamart",
        "rating_tempat": 5,
        "user_ratings_total": 1,
        "latitude": -6.3077549,
        "longitude": 106.8388917,
        "alamat_tempat": "stasiun tanjung barat kel, rt.4/rw.1, srengseng sawah, kota jakarta selatan",
        "place_id": "ChIJAdADu4rtaS4RvCWKME2nOFc",
        "distance": 2957.15345601278,
        "store": "Alfamart"
    },
    {
        "nama_tempat": "alfamart",
        "rating_tempat": 0,
        "user_ratings_total": 0,
        "latitude": -6.3071224,
        "longitude": 106.8350381,
        "alamat_tempat": "apart kebagusan city unit 1-ka kel, rt.1/rw.3, kebagusan, kota jakarta selatan",
        "place_id": "ChIJgfNO4B7taS4R-UWce8QYzk8",
        "distance": 2744.638207614054,
        "store": "Alfamart"
    },
    {
        "nama_tempat": "alfa rancho indah (dalam)",
        "rating_tempat": 4.4,
        "user_ratings_total": 269,
        "latitude": -6.309573200000001,
        "longitude": 106.850957,
        "alamat_tempat": "jl. rancho indah no.47d, rt.8/rw.2, tj. bar., kota jakarta selatan",
        "place_id": "ChIJFaiFN5DtaS4RMY3a1g0u8Bo",
        "distance": 2569.8815543641304,
        "store": "Alfamart"
    },
    {
        "nama_tempat": "alfamart - kebagusan city",
        "rating_tempat": 4.2,
        "user_ratings_total": 17,
        "latitude": -6.307295,
        "longitude": 106.8351857,
        "alamat_tempat": "apartemen kebagusan city tower a, rt.1/rw.3, kebagusan, pasar minggu, rt.1/rw.3, kebagusan, kota jakarta selatan",
        "place_id": "ChIJr2pCifHtaS4RLO2T4wxkmtk",
        "distance": 2028.126862921532,
        "store": "Alfamart"
    },
    {
        "nama_tempat": "alfamart",
        "rating_tempat": 3.4,
        "user_ratings_total": 12,
        "latitude": -6.315443900000001,
        "longitude": 106.8430878,
        "alamat_tempat": "jl. tj. barat selatan gg. 100 kel, lenteng agung, kota jakarta selatan",
        "place_id": "ChIJ406rRZPtaS4RMYVeSLK2seg",
        "distance": 1495.1821297836595,
        "store": "Alfamart"
    },
    {
        "nama_tempat": "sumber alfaria trijaya. pt (alfamart)",
        "rating_tempat": 2.7,
        "user_ratings_total": 6,
        "latitude": -6.350979499999999,
        "longitude": 106.8326992,
        "alamat_tempat": "jl. lenteng agung timur, no. 1 rt. 06 rw. 01, jagakarsa, rt.12/rw.8, lenteng agung, kota jakarta selatan",
        "place_id": "ChIJddTlTzPsaS4R4BYzvn0YNik",
        "distance": 762.3689578590471,
        "store": "Alfamart"
    },
    {
        "nama_tempat": "alfamart",
        "rating_tempat": 4.3,
        "user_ratings_total": 182,
        "latitude": -6.2967705,
        "longitude": 106.8442387,
        "alamat_tempat": "jl. raya poltangan, rt. 001, r no.kel, rt.1/rw.4, tj. bar., kota jakarta selatan",
        "place_id": "ChIJyyRGCHXyaS4RLCAb2pLyLeA",
        "distance": 1214.936025617944,
        "store": "Alfamart"
    },
    {
        "nama_tempat": "alfamart tanjung barat",
        "rating_tempat": 4,
        "user_ratings_total": 76,
        "latitude": -6.3044692,
        "longitude": 106.8398007,
        "alamat_tempat": "alfamart, jalan tanjung barat raya no.172, rt.2/rw.1, tanjung barat, jagakarsa, rt.10/rw.4, tj. bar., kota jakarta selatan",
        "place_id": "ChIJY1uOaPPtaS4RITGKVmQwRXc",
        "distance": 1169.8413169484286,
        "store": "Alfamart"
    },
    {
        "nama_tempat": "alfamart",
        "rating_tempat": 4.2,
        "user_ratings_total": 400,
        "latitude": -6.2984046,
        "longitude": 106.8407504,
        "alamat_tempat": "jl. tj. bar. lama no.kel, rt.4/rw.4, tj. bar., kota jakarta selatan",
        "place_id": "ChIJW2lkqAryaS4Rl3e1w3Am11w",
        "distance": 1343.3517736974989,
        "store": "Alfamart"
    },
    {
        "nama_tempat": "alfamart nangka poltangan",
        "rating_tempat": 4.1,
        "user_ratings_total": 10,
        "latitude": -6.3027653,
        "longitude": 106.8484869,
        "alamat_tempat": "jl. nangka raya no.1, rt.6/rw.5, tj. bar., kota jakarta selatan",
        "place_id": "ChIJFayoSIntaS4R9dPZgj-4vJY",
        "distance": 400.7672551269938,
        "store": "Alfamart"
    },
    {
        "nama_tempat": "alfamart",
        "rating_tempat": 4.5,
        "user_ratings_total": 47,
        "latitude": -6.301901099999999,
        "longitude": 106.8590919,
        "alamat_tempat": "jl. waru no.kel, rt.:06/01/rw.1, gedong, kabupaten garut",
        "place_id": "ChIJQdPWtIbtaS4RhBYZ6sehLRQ",
        "distance": 1069.5277411355676,
        "store": "Alfamart"
    },
    {
        "nama_tempat": "alfamart",
        "rating_tempat": 4.3,
        "user_ratings_total": 12,
        "latitude": -6.2955397,
        "longitude": 106.841134,
        "alamat_tempat": "jl. raya tj. barat kel no.24, rt.4/rw.4, tj. bar., kota jakarta selatan",
        "place_id": "ChIJq1i2LQvyaS4RHh12kmtjRqQ",
        "distance": 1532.6611981253106,
        "store": "Alfamart"
    },
    {
        "nama_tempat": "alfamart",
        "rating_tempat": 0,
        "user_ratings_total": 0,
        "latitude": -6.3027698,
        "longitude": 106.8484726,
        "alamat_tempat": "jl. nangka i no.4, rt.6/rw.5, tj. bar., kota jakarta selatan",
        "place_id": "ChIJz6jzUEvtaS4RNyn3cEc9GMc",
        "distance": 401.1212137047138,
        "store": "Alfamart"
    },
    {
        "nama_tempat": "alfamart kaplongan",
        "rating_tempat": 0,
        "user_ratings_total": 0,
        "latitude": -6.2895993,
        "longitude": 106.8399531,
        "alamat_tempat": "blok pasar minggu rt 06/02, kaplongan",
        "place_id": "ChIJWXRO9N7zaS4REwUM9xF11QI",
        "distance": 2141.8372509230667,
        "store": "Alfamart"
    },
    {
        "nama_tempat": "alfamart suci raya 3",
        "rating_tempat": 4.5,
        "user_ratings_total": 76,
        "latitude": -6.3163705,
        "longitude": 106.8673947,
        "alamat_tempat": "mvm8+fx2, rt.4/rw.4, susukan, east jakarta city",
        "place_id": "ChIJPYChSj7taS4Rq-R7hSUu8o0",
        "distance": 2220.7687832281986,
        "store": "Alfamart"
    },
    {
        "nama_tempat": "sumber alfaria trijaya. pt (alfamart)",
        "rating_tempat": 5,
        "user_ratings_total": 2,
        "latitude": -6.296903299999999,
        "longitude": 106.8410754,
        "alamat_tempat": "jl. tanjung barat, rt. 012 rw. 004, pasar minggu, rt.3/rw.4, tj. bar., kota jakarta selatan",
        "place_id": "ChIJ8zwCzAryaS4RkFLYkvqVhtw",
        "distance": 1426.9038044039794,
        "store": "Alfamart"
    },
    {
        "nama_tempat": "alfamart",
        "rating_tempat": 4,
        "user_ratings_total": 25,
        "latitude": -6.304666999999999,
        "longitude": 106.8503666,
        "alamat_tempat": "1, jl. rancho indah kel no.7, rt.1/rw.2, tj. bar., kota jakarta selatan",
        "place_id": "ChIJVdAdII_taS4Rb872ygOcjfw",
        "distance": 136.65785940110862,
        "store": "Alfamart"
    },
    {
        "nama_tempat": "west tanjung nangka alfamart",
        "rating_tempat": 4.2,
        "user_ratings_total": 10,
        "latitude": -6.3047898,
        "longitude": 106.8422906,
        "alamat_tempat": "jl. nangka raya no.10, rt.11/rw.4, tj. bar., kota jakarta selatan",
        "place_id": "ChIJXUNCuIztaS4RQ6Z_2mFx3Mk",
        "distance": 892.360549101461,
        "store": "Alfamart"
    },
    {
        "nama_tempat": "alfamart",
        "rating_tempat": 4.2,
        "user_ratings_total": 17,
        "latitude": -6.2959898,
        "longitude": 106.8365489,
        "alamat_tempat": "jl. gurame i, rt.2/rw.9, kel, kota jakarta selatan",
        "place_id": "ChIJkRXFMgryaS4ROng0xXn-8EU",
        "distance": 1875.771491498504,
        "store": "Alfamart"
    },
    {
        "nama_tempat": "alfamart tb.simatupang 3",
        "rating_tempat": 4.3,
        "user_ratings_total": 275,
        "latitude": -6.3039748,
        "longitude": 106.8430684,
        "alamat_tempat": "jalan tb. simatupang, rt.11/rw.4, tj. bar., kota jakarta selatan",
        "place_id": "ChIJ76qqqo3taS4RydX_XeSQfH8",
        "distance": 825.9480966896748,
        "store": "Alfamart"
    },
    {
        "nama_tempat": "swalayan tribuana vi (alfamart)",
        "rating_tempat": 4.1,
        "user_ratings_total": 26,
        "latitude": -6.3155489,
        "longitude": 106.8580757,
        "alamat_tempat": "mvm5+q6g, rt.1/rw.5, cijantung, east jakarta city",
        "place_id": "ChIJGWqmJpntaS4Rh-y6x6_6bFg",
        "distance": 1376.0532833064249,
        "store": "Alfamart"
    },
    {
        "nama_tempat": "alfamart",
        "rating_tempat": 4,
        "user_ratings_total": 5,
        "latitude": -6.258382999999999,
        "longitude": 106.8253662,
        "alamat_tempat": "jl. duren bangka no.31, d no.kel, rt.6/rw.4, bangka, kota jakarta selatan",
        "place_id": "ChIJSxYbySzyaS4R2syLNG02aQQ",
        "distance": 1915.616267077512,
        "store": "Alfamart"
    },
    {
        "nama_tempat": "alfamart",
        "rating_tempat": 4.2,
        "user_ratings_total": 66,
        "latitude": -6.2457614,
        "longitude": 106.8258046,
        "alamat_tempat": "jl. mampang prpt. raya kel no.58 a, rt.9/rw.3, tegal parang, kota jakarta selatan",
        "place_id": "ChIJWVXFdyLzaS4R8xNLa-VEm_w",
        "distance": 2495.294909584561,
        "store": "Alfamart"
    },
    {
        "nama_tempat": "alfamart",
        "rating_tempat": 3,
        "user_ratings_total": 8,
        "latitude": -6.2483201,
        "longitude": 106.7900754,
        "alamat_tempat": "jl. gandaria i no.04, rt. 010 kel, rt.1/rw.8, kramat pela, kota jakarta selatan",
        "place_id": "ChIJ9cTCcxLxaS4RIQU5nzRwbcU",
        "distance": 2356.461205570034,
        "store": "Alfamart"
    },
    {
        "nama_tempat": "alfamart",
        "rating_tempat": 4,
        "user_ratings_total": 6,
        "latitude": -6.247622199999999,
        "longitude": 106.7950681,
        "alamat_tempat": "jl. barito ii no.kel, rt.8/rw.5, kramat pela, kota jakarta selatan",
        "place_id": "ChIJ6fv_N23xaS4R8O7J0wDiRO4",
        "distance": 1965.2796089549825,
        "store": "Alfamart"
    },
    {
        "nama_tempat": "alfamart",
        "rating_tempat": 4.7,
        "user_ratings_total": 7,
        "latitude": -6.2662632,
        "longitude": 106.8239456,
        "alamat_tempat": "jl. kemang timur no.50, rt.9/rw.003 kel, bangka, kota jakarta selatan",
        "place_id": "ChIJVSxA1S7yaS4RZ9xhBDqwsbI",
        "distance": 1900.6732063069555,
        "store": "Alfamart"
    },
    {
        "nama_tempat": "alfamart",
        "rating_tempat": 3.5,
        "user_ratings_total": 12,
        "latitude": -6.2440528,
        "longitude": 106.8161758,
        "alamat_tempat": "jl. bangka raya kel no.31 a, rt.5/rw.5, pela mampang, kota jakarta selatan",
        "place_id": "ChIJQQRLPWLxaS4Rw_WIE4_HVMw",
        "distance": 1952.741245157132,
        "store": "Alfamart"
    },
    {
        "nama_tempat": "alfamart",
        "rating_tempat": 4.6,
        "user_ratings_total": 27,
        "latitude": -6.245343399999999,
        "longitude": 106.8012186,
        "alamat_tempat": "jl. melawai ( blok m mall kel, rt.3/rw.1, melawai, kota jakarta selatan",
        "place_id": "ChIJgYNzkW7xaS4RAyBciUPKZRg",
        "distance": 1763.8622397734562,
        "store": "Alfamart"
    },
    {
        "nama_tempat": "alfamart",
        "rating_tempat": 4.5,
        "user_ratings_total": 13,
        "latitude": -6.246897499999999,
        "longitude": 106.7898721,
        "alamat_tempat": "jl. gandaria 1 kel no.41, rt.2/rw.3, kramat pela, kota jakarta selatan",
        "place_id": "ChIJM-mfsy_xaS4RLeBYt92_-zA",
        "distance": 2463.118380855881,
        "store": "Alfamart"
    },
    {
        "nama_tempat": "alfamart bangka 2",
        "rating_tempat": 4.3,
        "user_ratings_total": 175,
        "latitude": -6.2433743,
        "longitude": 106.8156896,
        "alamat_tempat": "jl. bangka raya no.26, rt.5/rw.5, pela mampang, kota jakarta selatan",
        "place_id": "ChIJJcKfPGLxaS4RGLvlj1PN8YY",
        "distance": 1996.8869945212969,
        "store": "Alfamart"
    },
    {
        "nama_tempat": "alfamart",
        "rating_tempat": 3.8,
        "user_ratings_total": 13,
        "latitude": -6.2510088,
        "longitude": 106.8216417,
        "alamat_tempat": "jl. pondok jaya vi no.31 rt.00 kel, rt.6/rw.6, pela mampang, kota jakarta selatan",
        "place_id": "ChIJmdxMydLzaS4R3PTMkWwbsm8",
        "distance": 1781.0309004157127,
        "store": "Alfamart"
    },
    {
        "nama_tempat": "alfamart",
        "rating_tempat": 4.2,
        "user_ratings_total": 120,
        "latitude": -6.245465,
        "longitude": 106.8186523,
        "alamat_tempat": "jl. bangka ii kel no.29l, rt.17/rw.2, pela mampang, kota jakarta selatan",
        "place_id": "ChIJE2FoiNjzaS4RkuhZJgb9Stg",
        "distance": 1964.0127624299448,
        "store": "Alfamart"
    },
    {
        "nama_tempat": "alfamart",
        "rating_tempat": 3.8,
        "user_ratings_total": 39,
        "latitude": -6.243284,
        "longitude": 106.8259296,
        "alamat_tempat": "jl. mampang prpt. raya kel no.18, rt. 06/03, rt.6/rw.3, mampang prpt., kota jakarta selatan",
        "place_id": "ChIJ5743TtvzaS4RaNTeZ8xL7Gw",
        "distance": 2684.8457850829304,
        "store": "Alfamart"
    },
    {
        "nama_tempat": "alfamart kyai maja",
        "rating_tempat": 4.5,
        "user_ratings_total": 454,
        "latitude": -6.2415428,
        "longitude": 106.793223,
        "alamat_tempat": "10, jl. kyai maja no.37, rt.10/rw.7, kramat pela, kota jakarta selatan",
        "place_id": "ChIJ3XNl2RTxaS4R5Bv0sufWonw",
        "distance": 2599.604229509924,
        "store": "Alfamart"
    },
    {
        "nama_tempat": "alfamart faletehan",
        "rating_tempat": 4.3,
        "user_ratings_total": 32,
        "latitude": -6.2417419,
        "longitude": 106.8016892,
        "alamat_tempat": "jl. falatehan i no.30, rt.2/rw.1, melawai, kota jakarta selatan",
        "place_id": "ChIJM7mhkrDxaS4RCbsQa_-sjAw",
        "distance": 2114.403046172083,
        "store": "Alfamart"
    },
    {
        "nama_tempat": "alfamart",
        "rating_tempat": 0,
        "user_ratings_total": 0,
        "latitude": -6.252799599999999,
        "longitude": 106.8268128,
        "alamat_tempat": "jl. mampang prpt. 16 kel no.5, rt.1/rw.6, tegal parang, kota jakarta selatan",
        "place_id": "ChIJl_om9KjzaS4RGU8Vxu07GBo",
        "distance": 2206.4310834284274,
        "store": "Alfamart"
    },
    {
        "nama_tempat": "alfamart",
        "rating_tempat": 4,
        "user_ratings_total": 5,
        "latitude": -6.2777493,
        "longitude": 106.8270138,
        "alamat_tempat": "jl. pejaten barat raya kel no.36, rt.6/rw.3, ragunan, kota jakarta selatan",
        "place_id": "ChIJ8_uaqH3zaS4Rh21wCL2tD_g",
        "distance": 2902.1509461114497,
        "store": "Alfamart"
    },
    {
        "nama_tempat": "alfamart kapten tendean 2",
        "rating_tempat": 3.8,
        "user_ratings_total": 11,
        "latitude": -6.240049200000001,
        "longitude": 106.818981,
        "alamat_tempat": "jl. kapt. tendean no. 18 b, rt, kel, rt.1/rw.1, pela mampang, kota jakarta selatan",
        "place_id": "ChIJk9Chmd_zaS4R8JKnx_DYAd4",
        "distance": 2491.537194876398,
        "store": "Alfamart"
    },
    {
        "nama_tempat": "alfamart mampang prapatan 2 (kb48)",
        "rating_tempat": 4,
        "user_ratings_total": 4,
        "latitude": -6.2527525,
        "longitude": 106.8268743,
        "alamat_tempat": "jl. warung buncit raya no.5, rt.4/rw.6, tegal parang, kota jakarta selatan",
        "place_id": "ChIJgePHgdHzaS4RcdWxMOdPfeA",
        "distance": 2214.622405689629,
        "store": "Alfamart"
    },
    {
        "nama_tempat": "alfamart",
        "rating_tempat": 0,
        "user_ratings_total": 0,
        "latitude": -6.240064299999999,
        "longitude": 106.8042097,
        "alamat_tempat": "pt pln (persero) kantor pusat, jl. trunojoyo no.kel, rt.6/rw.2, melawai, south jakarta city",
        "place_id": "ChIJp0jKnE_xaS4ReNrwgJLzaRU",
        "distance": 2220.985460870352,
        "store": "Alfamart"
    },
    {
        "nama_tempat": "alfamart koppeg pt pln",
        "rating_tempat": 3.9,
        "user_ratings_total": 12,
        "latitude": -6.2407841,
        "longitude": 106.8035925,
        "alamat_tempat": "jl. trunojoyo no.135, rt.6/rw.2, melawai, kota jakarta selatan",
        "place_id": "ChIJgZrvVmjxaS4R-CmjwHJTv-o",
        "distance": 2157.173704410975,
        "store": "Alfamart"
    },
    {
        "nama_tempat": "alfa midi",
        "rating_tempat": 4.5,
        "user_ratings_total": 174,
        "latitude": -6.2468046,
        "longitude": 106.7948782,
        "alamat_tempat": "qq3v+7xc, jl. barito ii, rt.8/rw.5, kramat pela, kota jakarta selatan",
        "place_id": "ChIJAS87L23xaS4RE2RaGQ6kKq4",
        "distance": 2043.251834662572,
        "store": "Alfamart"
    },
    {
        "nama_tempat": "alfamart",
        "rating_tempat": 4.3,
        "user_ratings_total": 4,
        "latitude": -6.2426448,
        "longitude": 106.787694,
        "alamat_tempat": "jl. gandaria 1 no.339, rt.5/rw.2, kramat pela, kota jakarta selatan",
        "place_id": "ChIJ2-7GYbvxaS4RR9L87NnK-a0",
        "distance": 1725.4123895123848,
        "store": "Alfamart"
    },
    {
        "nama_tempat": "alfamart",
        "rating_tempat": 4.1,
        "user_ratings_total": 12,
        "latitude": -6.266555299999999,
        "longitude": 106.774843,
        "alamat_tempat": "jl. ciputat raya kel no.101, rw.4, pd. pinang, kota jakarta selatan",
        "place_id": "ChIJS00uRKzxaS4RfR-cjilSvTE",
        "distance": 1907.968565261417,
        "store": "Alfamart"
    },
    {
        "nama_tempat": "alfamart",
        "rating_tempat": 4.2,
        "user_ratings_total": 20,
        "latitude": -6.275189699999999,
        "longitude": 106.7734774,
        "alamat_tempat": "7, jl. ciputat raya no.kel, rw.6, pd. pinang, kota jakarta selatan",
        "place_id": "ChIJV87Df7PxaS4R7l-FQ1i9YTc",
        "distance": 2628.197432594005,
        "store": "Alfamart"
    },
    {
        "nama_tempat": "alfamart",
        "rating_tempat": 0,
        "user_ratings_total": 0,
        "latitude": -6.2644372,
        "longitude": 106.7750567,
        "alamat_tempat": "jl. ciputat raya no.25a, rt.6/rw.1, pd. pinang, kota jakarta selatan",
        "place_id": "ChIJNZ_TjKvxaS4RSpGgi-UQMHE",
        "distance": 1780.7350246151711,
        "store": "Alfamart"
    },
    {
        "nama_tempat": "alfamart ciputat raya 5",
        "rating_tempat": 4.6,
        "user_ratings_total": 262,
        "latitude": -6.2644227,
        "longitude": 106.7750253,
        "alamat_tempat": "jl. ciputat raya no.23, rw.1, pd. pinang, kota jakarta selatan",
        "place_id": "ChIJwYPXjKvxaS4RnddDvAVPi-E",
        "distance": 1783.270692783905,
        "store": "Alfamart"
    },
    {
        "nama_tempat": "alfamart",
        "rating_tempat": 4.1,
        "user_ratings_total": 9,
        "latitude": -6.2452254,
        "longitude": 106.7725276,
        "alamat_tempat": "jl. peninggaran raya no.kel, rt.8/rw.11, kby. lama utara, kota jakarta selatan",
        "place_id": "ChIJkUx2wx3xaS4RC4O553KPlfM",
        "distance": 2382.269160124183,
        "store": "Alfamart"
    },
    {
        "nama_tempat": "alfamart ciputat raya 2",
        "rating_tempat": 4.3,
        "user_ratings_total": 88,
        "latitude": -6.275048399999999,
        "longitude": 106.7735843,
        "alamat_tempat": "pqff+xcp, rt.7/rw.6, pondok pinang, south jakarta city",
        "place_id": "ChIJ0-P2f7PxaS4Rcf73HyrOepA",
        "distance": 2608.6644267117763,
        "store": "Alfamart"
    },
    {
        "nama_tempat": "alfamart",
        "rating_tempat": 4.4,
        "user_ratings_total": 52,
        "latitude": -6.2392731,
        "longitude": 106.8100952,
        "alamat_tempat": "jl. wolter monginsidi kel no.46, rt.1/rw.6, petogogan, kota jakarta selatan",
        "place_id": "ChIJ-TaTa2fxaS4R6RNGaVrMT6k",
        "distance": 3060.8391904731748,
        "store": "Alfamart"
    },
    {
        "nama_tempat": "alfamart",
        "rating_tempat": 4.1,
        "user_ratings_total": 52,
        "latitude": -6.2382658,
        "longitude": 106.7723374,
        "alamat_tempat": "jl. raya ciledug, rt. 5/4 kel, rt.6/rw.11, cipulir, kota jakarta selatan",
        "place_id": "ChIJa3p8yiXxaS4RfugjuGiw9us",
        "distance": 2925.150781247364,
        "store": "Alfamart"
    },
    {
        "nama_tempat": "alfamart",
        "rating_tempat": 4.3,
        "user_ratings_total": 118,
        "latitude": -6.228025,
        "longitude": 106.7785565,
        "alamat_tempat": "jl. raya kby. lama no.37, rt.5/rw.007 kel, grogol sel., kota jakarta selatan",
        "place_id": "ChIJl8UlGdXxaS4Rzp4Cn0GDDRY",
        "distance": 2467.5834374984684,
        "store": "Alfamart"
    },
    {
        "nama_tempat": "alfamart",
        "rating_tempat": 4.4,
        "user_ratings_total": 17,
        "latitude": -6.2284805,
        "longitude": 106.7855186,
        "alamat_tempat": "jl. rawa simprug iii, rt.03, r no.kel, rt.3/rw.9, grogol sel., kota jakarta selatan",
        "place_id": "ChIJIYHBgDDxaS4RvycdmnfZeP4",
        "distance": 2018.298321070898,
        "store": "Alfamart"
    },
    {
        "nama_tempat": "alfamart",
        "rating_tempat": 3,
        "user_ratings_total": 2,
        "latitude": -6.236459,
        "longitude": 106.8006485,
        "alamat_tempat": "jl. iskandarsyah raya kel no.35, rt.2/rw.1, melawai, kota jakarta selatan",
        "place_id": "ChIJsaRf3yPxaS4R4cFCV3ZPdak",
        "distance": 1300.4173708074882,
        "store": "Alfamart"
    },
    {
        "nama_tempat": "alfamart",
        "rating_tempat": 4.6,
        "user_ratings_total": 22,
        "latitude": -6.236351,
        "longitude": 106.7872294,
        "alamat_tempat": "jl. ophir kramat 2 pakubuwono, kel, rt.7/rw.1, gunung, kota jakarta selatan",
        "place_id": "ChIJvR3FTzzxaS4R3I33kymyg0w",
        "distance": 1153.1354529188952,
        "store": "Alfamart"
    },
    {
        "nama_tempat": "alfamart express stasiun kebayoran lama",
        "rating_tempat": 3.6,
        "user_ratings_total": 5,
        "latitude": -6.2374573,
        "longitude": 106.7825889,
        "alamat_tempat": "jl. st. no.7a, rt.2/rw.1, south, kota jakarta selatan",
        "place_id": "ChIJ8-2f5VzxaS4RuUIzcDEbZJ8",
        "distance": 1412.5572590394047,
        "store": "Alfamart"
    },
    {
        "nama_tempat": "alfamart",
        "rating_tempat": 4.5,
        "user_ratings_total": 71,
        "latitude": -6.2256975,
        "longitude": 106.7750044,
        "alamat_tempat": "jl assirot rt 12/1 kel, rt.12/rw.1, sukabumi sel., kota jakarta selatan",
        "place_id": "ChIJiRXWFynxaS4RMfZt6bXsEeI",
        "distance": 2920.381689822065,
        "store": "Alfamart"
    },
    {
        "nama_tempat": "alfamart",
        "rating_tempat": 5,
        "user_ratings_total": 1,
        "latitude": -6.2385571,
        "longitude": 106.8170846,
        "alamat_tempat": "jl. wolter monginsidi no.125, rt.1/rw.2, rw. bar., kota jakarta selatan",
        "place_id": "ChIJ7dChQKnxaS4Rc90K7EVLZBA",
        "distance": 1847.7131875080768,
        "store": "Alfamart"
    },
    {
        "nama_tempat": "alfamart",
        "rating_tempat": 0,
        "user_ratings_total": 0,
        "latitude": -6.2300567,
        "longitude": 106.8187181,
        "alamat_tempat": "jl. gatot subroto kel no.kav.52, rt.6/rw.1, kuningan bar., kota jakarta selatan",
        "place_id": "ChIJDxW97RrzaS4RmZsx_ifU4x8",
        "distance": 2506.14886214287,
        "store": "Alfamart"
    },
    {
        "nama_tempat": "alfamart",
        "rating_tempat": 3,
        "user_ratings_total": 1,
        "latitude": -6.2303643,
        "longitude": 106.8218469,
        "alamat_tempat": "jl. guru mughni kel no.12, rt.1, kuningan, kuningan tim., kota jakarta selatan",
        "place_id": "ChIJR3_-W0XzaS4Ra2KJ49HgobM",
        "distance": 2756.216958149565,
        "store": "Alfamart"
    },
    {
        "nama_tempat": "alfamart",
        "rating_tempat": 4.8,
        "user_ratings_total": 5,
        "latitude": -6.226305,
        "longitude": 106.8191669,
        "alamat_tempat": "apartemen taman semanggi, jl. akri kel no.136, rt.8/rw.2, karet semanggi, kota jakarta selatan",
        "place_id": "ChIJZSNypFjzaS4RiqX0yBCekAw",
        "distance": 2831.5158870565656,
        "store": "Alfamart"
    },
    {
        "nama_tempat": "alfamart guru mugni 2",
        "rating_tempat": 3.8,
        "user_ratings_total": 25,
        "latitude": -6.230415799999999,
        "longitude": 106.8213373,
        "alamat_tempat": "jl. peltu rahmat sidup no.7 kuningan rt.1, rt.1, rt.1, kuningan, kuningan tim., kota jakarta selatan",
        "place_id": "ChIJ7z1SCOPzaS4RUqc62WYc7_E",
        "distance": 2707.3109072714897,
        "store": "Alfamart"
    },
    {
        "nama_tempat": "alfamart buncit 12",
        "rating_tempat": 4.5,
        "user_ratings_total": 13,
        "latitude": -6.2527202,
        "longitude": 106.826871,
        "alamat_tempat": "jl. mampang prapatan xiii no.12, rt.1/rw.6, tegal parang, kota jakarta selatan",
        "place_id": "ChIJpQkMoNHzaS4R2HbnZOycUjU",
        "distance": 2169.8576833384545,
        "store": "Alfamart"
    },
    {
        "nama_tempat": "alfamart mampang prapatan 2",
        "rating_tempat": 4.2,
        "user_ratings_total": 180,
        "latitude": -6.2433977,
        "longitude": 106.8291506,
        "alamat_tempat": "jl. mampang prapatan ii no.19, rt.10/rw.2, mampang prpt., kota jakarta selatan",
        "place_id": "ChIJv7kzTtvzaS4RPboho4y1LBs",
        "distance": 2071.3935577600187,
        "store": "Alfamart"
    },
    {
        "nama_tempat": "alfamart satrio",
        "rating_tempat": 4.7,
        "user_ratings_total": 12,
        "latitude": -6.2256225,
        "longitude": 106.8301711,
        "alamat_tempat": "jl. prof. dr. satrio no.9, rt.7/rw.2, kuningan, kuningan tim., kota jakarta selatan",
        "place_id": "ChIJRSP9X8HzaS4ROIFGu7jBrKg",
        "distance": 2839.881701273883,
        "store": "Alfamart"
    },
    {
        "nama_tempat": "alfamart",
        "rating_tempat": 4.7,
        "user_ratings_total": 11,
        "latitude": -6.218932499999999,
        "longitude": 106.8302356,
        "alamat_tempat": "jl.hr. rasuna said kav. 3 - 5 kel, rt.6/rw.7, kuningan, setia budi, kota jakarta selatan",
        "place_id": "ChIJXVCj6unzaS4R3_PYMijRI8o",
        "distance": 2721.25267027416,
        "store": "Alfamart"
    },
    {
        "nama_tempat": "alfamart mampang prapatan xiv",
        "rating_tempat": 3,
        "user_ratings_total": 1,
        "latitude": -6.2512721,
        "longitude": 106.8313689,
        "alamat_tempat": "prxj+fgx, rt.9/rw.4, tegal parang, south jakarta city",
        "place_id": "ChIJaXYbbDDzaS4RLIPv_3bV5Yg",
        "distance": 2555.1701056409315,
        "store": "Alfamart"
    },
    {
        "nama_tempat": "alfamart tegal parang 2",
        "rating_tempat": 4.2,
        "user_ratings_total": 343,
        "latitude": -6.2472825,
        "longitude": 106.8318862,
        "alamat_tempat": "jl. tegal parang sel. no.3, rt.4/rw.2, tegal parang, kota jakarta selatan",
        "place_id": "ChIJyxel_CHzaS4RK3olku7tsH8",
        "distance": 2351.2109005396965,
        "store": "Alfamart"
    },
    {
        "nama_tempat": "alfamart",
        "rating_tempat": 5,
        "user_ratings_total": 3,
        "latitude": -6.2392783,
        "longitude": 106.832538,
        "alamat_tempat": "jl. gatot subroto no.kav 56, rt.1/rw.4, kuningan tim., kota jakarta selatan",
        "place_id": "ChIJXb2FxfXzaS4RMmmtYeQEE18",
        "distance": 2131.900137955262,
        "store": "Alfamart"
    },
    {
        "nama_tempat": "alfamart",
        "rating_tempat": 5,
        "user_ratings_total": 1,
        "latitude": -6.2435925,
        "longitude": 106.8322469,
        "alamat_tempat": "jl. tegal parang utara no.23a, rt.15/rw.007, kel, kota jakarta selatan",
        "place_id": "ChIJ7yB92wvzaS4RB20MfN2CxwI",
        "distance": 2214.605395439579,
        "store": "Alfamart"
    },
    {
        "nama_tempat": "alfamart",
        "rating_tempat": 2.6,
        "user_ratings_total": 5,
        "latitude": -6.216807999999999,
        "longitude": 106.8179903,
        "alamat_tempat": "jl. jenderal sudirman kel no.kav. 45-46, rt.3/rw.4, setia budi, kota jakarta selatan",
        "place_id": "ChIJM7-EqKr2aS4Rv5IqHeB_HY0",
        "distance": 2279.865930018492,
        "store": "Alfamart"
    },
    {
        "nama_tempat": "alfamart tegal parang selatan",
        "rating_tempat": 0,
        "user_ratings_total": 0,
        "latitude": -6.2481087,
        "longitude": 106.8334975,
        "alamat_tempat": "jl. tegal parang selatan i no.2, rw.4, tegal parang, kota jakarta selatan",
        "place_id": "ChIJQzyLgYTzaS4RebsP5hyLO0c",
        "distance": 2551.447097846768,
        "store": "Alfamart"
    },
    {
        "nama_tempat": "alfamart",
        "rating_tempat": 0,
        "user_ratings_total": 0,
        "latitude": -6.22884,
        "longitude": 106.83263,
        "alamat_tempat": "ariobimo sentral, jl. h. r. rasuna said no.kel, rt.1/rw.2, kuningan, kuningan tim., kota jakarta selatan",
        "place_id": "ChIJj_61hA3zaS4RYO2Bom0a2e0",
        "distance": 2301.2325229431426,
        "store": "Alfamart"
    },
    {
        "nama_tempat": "alfamart tegal parang 3",
        "rating_tempat": 4,
        "user_ratings_total": 148,
        "latitude": -6.2436208,
        "longitude": 106.8322451,
        "alamat_tempat": "qr4j+hv3, jl. tegal parang utara, rt.4/rw.7, mampang prpt., kota jakarta selatan",
        "place_id": "ChIJfecMjMTzaS4R4fJ9fakjI5Q",
        "distance": 2215.493598103382,
        "store": "Alfamart"
    },
    {
        "nama_tempat": "alfamart",
        "rating_tempat": 4.3,
        "user_ratings_total": 66,
        "latitude": -6.216337999999999,
        "longitude": 106.8203685,
        "alamat_tempat": "jl. bek murad no.7, rt.8/rw.001 kel, kuningan, karet kuningan, kota jakarta selatan",
        "place_id": "ChIJqxVWcJX1aS4RUAMlnS81uJM",
        "distance": 2891.362371310433,
        "store": "Alfamart"
    },
    {
        "nama_tempat": "alfamart",
        "rating_tempat": 4.3,
        "user_ratings_total": 151,
        "latitude": -6.216512,
        "longitude": 106.8278755,
        "alamat_tempat": "jl. anggrek 3 kel no.25 b, rt.19/rw.2, kuningan, karet kuningan, kota jakarta selatan",
        "place_id": "ChIJd8d5kgf0aS4RZrS7fXlU-kg",
        "distance": 2232.022518945133,
        "store": "Alfamart"
    },
    {
        "nama_tempat": "alfamart",
        "rating_tempat": 4,
        "user_ratings_total": 1,
        "latitude": -6.2130459,
        "longitude": 106.825213,
        "alamat_tempat": "jl. karet belakang barat jl. karbela no.kel, rt.1/rw.2, kuningan, karet kuningan, kota jakarta selatan",
        "place_id": "ChIJg9H4zDH1aS4Rm3_YlVTAJaY",
        "distance": 2226.0524349851626,
        "store": "Alfamart"
    },
    {
        "nama_tempat": "alfamart setiabudibarat",
        "rating_tempat": 5,
        "user_ratings_total": 1,
        "latitude": -6.2104934,
        "longitude": 106.8230285,
        "alamat_tempat": "jl. setiabudi raya no.2, rw.2, kuningan, kota jakarta selatan",
        "place_id": "ChIJRScsryb1aS4RlODMjqPRKNU",
        "distance": 2273.121637995046,
        "store": "Alfamart"
    },
    {
        "nama_tempat": "alfamart",
        "rating_tempat": 4.3,
        "user_ratings_total": 263,
        "latitude": -6.2138855,
        "longitude": 106.8266392,
        "alamat_tempat": "jl. karet belakang i no.2, rt.3/rw.4, kuningan, karet, kota jakarta selatan",
        "place_id": "ChIJUyMhTgb0aS4RgL8lQLR7f34",
        "distance": 2284.7264542393177,
        "store": "Alfamart"
    },
    {
        "nama_tempat": "sumber alfaria trijaya. pt (alfamart)",
        "rating_tempat": 3,
        "user_ratings_total": 1,
        "latitude": -6.213625899999999,
        "longitude": 106.8206906,
        "alamat_tempat": "jl. penjernihan i no.10, rt.4/rw.2, kuningan, karet, kota jakarta selatan",
        "place_id": "ChIJo-s9oAH0aS4RVJ8YUgAM_DY",
        "distance": 1839.4961159958168,
        "store": "Alfamart"
    },
    {
        "nama_tempat": "alfamart karbela 3",
        "rating_tempat": 4.3,
        "user_ratings_total": 25,
        "latitude": -6.2092301,
        "longitude": 106.8266949,
        "alamat_tempat": "jl. setia budi tengah no.5, rt.1/rw.1, kuningan, kota jakarta selatan",
        "place_id": "ChIJNYn7SAf0aS4RXmIS9qwhxQU",
        "distance": 2642.4371243496234,
        "store": "Alfamart"
    },
    {
        "nama_tempat": "alfamart karbela 2",
        "rating_tempat": 3.8,
        "user_ratings_total": 5,
        "latitude": -6.2154088,
        "longitude": 106.8281067,
        "alamat_tempat": "jl. karbela, gg. anggrek xii kel no.10, rt.18/rw.2, kuningan, karet kuningan, kota jakarta selatan",
        "place_id": "ChIJAy-tiaj1aS4RDnaS0bHpQiw",
        "distance": 2318.035869897869,
        "store": "Alfamart"
    },
    {
        "nama_tempat": "alfamart",
        "rating_tempat": 4.6,
        "user_ratings_total": 7,
        "latitude": -6.2375671,
        "longitude": 106.7690621,
        "alamat_tempat": "jl. ciledug raya kel no.99, rw.5, cipulir, kota jakarta selatan",
        "place_id": "ChIJW9fq8I3xaS4RxMcrn3PVoYk",
        "distance": 0,
        "store": "Alfamart"
    },
    {
        "nama_tempat": "alfamart",
        "rating_tempat": 4.3,
        "user_ratings_total": 12,
        "latitude": -6.220866099999999,
        "longitude": 106.7786611,
        "alamat_tempat": "jl. raya kby. lama kel no.60, rt.7/rw.2, grogol utara, kota jakarta selatan",
        "place_id": "ChIJTXm4acHxaS4RKHXcYl6lbG4",
        "distance": 0,
        "store": "Alfamart"
    },
    {
        "nama_tempat": "alfamart panjang cidodol 10",
        "rating_tempat": 4.6,
        "user_ratings_total": 87,
        "latitude": -6.226878399999999,
        "longitude": 106.7720727,
        "alamat_tempat": "9, jl. panjang cidodol no.1, rw.9, sukabumi sel., kota jakarta selatan",
        "place_id": "ChIJye3X2v_xaS4R_nF5CHsgfqM",
        "distance": 0,
        "store": "Alfamart"
    },
    {
        "nama_tempat": "alfamart",
        "rating_tempat": 0,
        "user_ratings_total": 0,
        "latitude": -6.213906,
        "longitude": 106.831112,
        "alamat_tempat": "jl. h. r. rasuna said no.kav. 3, rt.3/rw.5, setia budi, kota jakarta selatan",
        "place_id": "ChIJj0q3Toz1aS4RmEbgm7uw19A",
        "distance": 0,
        "store": "Alfamart"
    },
    {
        "nama_tempat": "alfamart bakrie tower",
        "rating_tempat": 4.7,
        "user_ratings_total": 6,
        "latitude": -6.2193385,
        "longitude": 106.8344896,
        "alamat_tempat": "bakrie tower, jl. epicentrum utama raya no.2, rt.2/rw.5, karet kuningan, south jakarta city",
        "place_id": "ChIJW44xTg70aS4RnoQoC3ewjZY",
        "distance": 0,
        "store": "Alfamart"
    },
    {
        "nama_tempat": "alfamart",
        "rating_tempat": 4.7,
        "user_ratings_total": 54,
        "latitude": -6.248098499999999,
        "longitude": 106.8289238,
        "alamat_tempat": "jl. mampang prapatan viii no.23, rw.2, tegal parang, kota jakarta selatan",
        "place_id": "ChIJw9fJV1DzaS4R-MkiDQkHMOY",
        "distance": 0,
        "store": "Alfamart"
    },
    {
        "nama_tempat": "alfamart",
        "rating_tempat": 4.4,
        "user_ratings_total": 82,
        "latitude": -6.233785,
        "longitude": 106.7573647,
        "alamat_tempat": "jl. kostrad pusri kel no.42 rt 04/04, rt.4/rw.4, pela mampang, kota jakarta selatan",
        "place_id": "ChIJV5SblcTwaS4RFahjIV6xK_g",
        "distance": 1825.5184125512271,
        "store": "Alfamart"
    },
    {
        "nama_tempat": "alfamart",
        "rating_tempat": 3.8,
        "user_ratings_total": 20,
        "latitude": -6.241620699999999,
        "longitude": 106.7563085,
        "alamat_tempat": "jl. m. saidi no. 37, rt. 004 / 001 kel, rt.7/rw.5, petukangan sel., kota jakarta selatan",
        "place_id": "ChIJHWXiNejwaS4ROduEiEdqDvs",
        "distance": 1983.9530494962748,
        "store": "Alfamart"
    },
    {
        "nama_tempat": "alfamart",
        "rating_tempat": 4.8,
        "user_ratings_total": 8,
        "latitude": -6.2466634,
        "longitude": 106.7620832,
        "alamat_tempat": "jl.ulujami raya no 86 rt 1/4 kel, rw.7, ulujami, kota jakarta selatan",
        "place_id": "ChIJiZF3MRHxaS4RMkLi-3sXAfI",
        "distance": 1678.4474680537344,
        "store": "Alfamart"
    },
    {
        "nama_tempat": "alfamart",
        "rating_tempat": 0,
        "user_ratings_total": 0,
        "latitude": -6.2373959,
        "longitude": 106.7584582,
        "alamat_tempat": "jl. ciledug raya kel no.2, rt.13/rw.002, petukangan utara, kota jakarta selatan",
        "place_id": "ChIJ-agkUa3xaS4RDzBJWhZ9pAQ",
        "distance": 1674.3998740176771,
        "store": "Alfamart"
    },
    {
        "nama_tempat": "sumber alfaria trijaya. pt (alfamart)",
        "rating_tempat": 0,
        "user_ratings_total": 0,
        "latitude": -6.2351522,
        "longitude": 106.7576759,
        "alamat_tempat": "mampang prpt. jl. kostrad pusri no.42, rt.5/rw.4, petukangan utara, kota jakarta selatan",
        "place_id": "ChIJTfcbXMPwaS4RUTsckpjrLio",
        "distance": 1769.3970947346709,
        "store": "Alfamart"
    },
    {
        "nama_tempat": "alfamart",
        "rating_tempat": 4.3,
        "user_ratings_total": 83,
        "latitude": -6.2262738,
        "longitude": 106.7574297,
        "alamat_tempat": "jl. palem v no.29a, rt.3/rw.008 kel, petukangan utara, kota jakarta selatan",
        "place_id": "ChIJbZxuR87waS4RypdX0qDk-Ss",
        "distance": 2137.3196252379857,
        "store": "Alfamart"
    },
    {
        "nama_tempat": "alfamart",
        "rating_tempat": 4.1,
        "user_ratings_total": 61,
        "latitude": -6.2333072,
        "longitude": 106.7605881,
        "alamat_tempat": "jl. swadarma raya kel no.24, rt.18/rw.8, ulujami, kota jakarta selatan",
        "place_id": "ChIJiThZFNvwaS4RTbh3WkNuQRc",
        "distance": 1489.8631726459464,
        "store": "Alfamart"
    },
    {
        "nama_tempat": "alfamart",
        "rating_tempat": 4.4,
        "user_ratings_total": 228,
        "latitude": -6.2498001,
        "longitude": 106.7567651,
        "alamat_tempat": "jl. merpati raya no.1, rt.3/rw.6, pesanggrahan, kota jakarta selatan",
        "place_id": "ChIJfTNH2u_waS4RfAA7VP4nhgA",
        "distance": 2354.5506595083443,
        "store": "Alfamart"
    },
    {
        "nama_tempat": "alfamart",
        "rating_tempat": 4.1,
        "user_ratings_total": 78,
        "latitude": -6.2276746,
        "longitude": 106.7604631,
        "alamat_tempat": "jl. swadarma raya kel no.9, rt.9/rw.8, ulujami, kota jakarta selatan",
        "place_id": "ChIJUXhI3AzxaS4RwEQ8G0z8fnE",
        "distance": 1772.3423152310102,
        "store": "Alfamart"
    },
    {
        "nama_tempat": "alfamart ulujami perdatam 2",
        "rating_tempat": 4.4,
        "user_ratings_total": 278,
        "latitude": -6.241565200000001,
        "longitude": 106.763046,
        "alamat_tempat": "jl. ulujami raya no.37, rt.11/rw.5, ulujami, kota jakarta selatan",
        "place_id": "ChIJxVlcmuXxaS4RuKkkG0FzqEg",
        "distance": 1279.874001648667,
        "store": "Alfamart"
    },
    {
        "nama_tempat": "alfamart",
        "rating_tempat": 4.1,
        "user_ratings_total": 13,
        "latitude": -6.2562549,
        "longitude": 106.7620386,
        "alamat_tempat": "jl. bintaro permai no.03b, rt.5/rw.2, pesanggrahan, kota jakarta selatan",
        "place_id": "ChIJd_TogY_xaS4Rr4fIDW9btxc",
        "distance": 2510.361924495984,
        "store": "Alfamart"
    },
    {
        "nama_tempat": "alfamart",
        "rating_tempat": 3.3,
        "user_ratings_total": 23,
        "latitude": -6.2136295,
        "longitude": 106.7798298,
        "alamat_tempat": "jl. raya kby. lama kel no.6, rt.3/rw.1, grogol utara, kota jakarta selatan",
        "place_id": "ChIJd2BjRnf3aS4RNuD_v9JPHBk",
        "distance": 1825.0870201149,
        "store": "Alfamart"
    },
    {
        "nama_tempat": "alfamart",
        "rating_tempat": 4,
        "user_ratings_total": 33,
        "latitude": -6.2187475,
        "longitude": 106.7937508,
        "alamat_tempat": "jl. patal senayan, no. 01, blok f, kav. 197, rt.3/rw.007 kel, grogol utara, kota jakarta selatan",
        "place_id": "ChIJl4LWWzXxaS4R68Ts7gLQtmg",
        "distance": 1981.928698752689,
        "store": "Alfamart"
    },
    {
        "nama_tempat": "alfamart anggrek cakra",
        "rating_tempat": 4.3,
        "user_ratings_total": 4,
        "latitude": -6.2026125,
        "longitude": 106.7774417,
        "alamat_tempat": "jalan anggrek cakra, no. 19 sukabumi utara, jl. panjang no.rt.5, rt.5/rw.7, kebon jeruk, west jakarta city",
        "place_id": "ChIJH1TFaor3aS4RzLaytbCIxOw",
        "distance": 1728.1860770754836,
        "store": "Alfamart"
    },
    {
        "nama_tempat": "alfamart",
        "rating_tempat": 4.1,
        "user_ratings_total": 56,
        "latitude": -6.207507300000001,
        "longitude": 106.7834121,
        "alamat_tempat": "jl.kebayoran lama no.21 rt 4/3 kel, jl. raya kby. lama no.2a, rt.4/rw.3, grogol utara, kota jakarta selatan",
        "place_id": "ChIJlWLFJcX2aS4R6fFLh-CWsAs",
        "distance": 968.796686744963,
        "store": "Alfamart"
    },
    {
        "nama_tempat": "alfamart jalan angrek cendrawasih raya",
        "rating_tempat": 0,
        "user_ratings_total": 0,
        "latitude": -6.199457,
        "longitude": 106.7977008,
        "alamat_tempat": "jalan anggrek cendrawasih raya no. k50, rt.1/rw.3, kemanggisan, west jakarta city",
        "place_id": "ChIJAWxzL-f3aS4Rf3DliLnYd0o",
        "distance": 2287.546213340093,
        "store": "Alfamart"
    },
    {
        "nama_tempat": "alfamart",
        "rating_tempat": 4.5,
        "user_ratings_total": 287,
        "latitude": -6.258382699999999,
        "longitude": 106.7680629,
        "alamat_tempat": "jl. rc. veteran raya no.17h, rt.4/rw.4, bintaro, kota jakarta selatan",
        "place_id": "ChIJ19nrzXjxaS4R0lQ2di-0Tl4",
        "distance": 1271.770406595295,
        "store": "Alfamart"
    },
    {
        "nama_tempat": "alfamart",
        "rating_tempat": 4.5,
        "user_ratings_total": 194,
        "latitude": -6.274661099999999,
        "longitude": 106.7633277,
        "alamat_tempat": "jl. rc veteran i rt 004, rt.4/rw.7, bintaro, kota jakarta selatan",
        "place_id": "ChIJT3CjyLrxaS4R7JM0n40maFA",
        "distance": 2648.74917836419,
        "store": "Alfamart"
    },
    {
        "nama_tempat": "alfamart",
        "rating_tempat": 4.4,
        "user_ratings_total": 96,
        "latitude": -6.2609176,
        "longitude": 106.7672296,
        "alamat_tempat": "jl. rc. veteran raya no.8, rt.10/rw.10, bintaro, kota jakarta selatan",
        "place_id": "ChIJAcbTg1XwaS4RG9XNozvVjE4",
        "distance": 1421.2423163115636,
        "store": "Alfamart"
    },
    {
        "nama_tempat": "alfamart",
        "rating_tempat": 4.3,
        "user_ratings_total": 107,
        "latitude": -6.265090300000001,
        "longitude": 106.7661347,
        "alamat_tempat": "jl. rc. veteran raya no.3, rt.9/rw.1, bintaro, kota jakarta selatan",
        "place_id": "ChIJfQbLC1TwaS4R2VS9ArUGtyk",
        "distance": 1724.6036580382074,
        "store": "Alfamart"
    },
    {
        "nama_tempat": "alfamart",
        "rating_tempat": 3.9,
        "user_ratings_total": 10,
        "latitude": -6.2633835,
        "longitude": 106.7634433,
        "alamat_tempat": "jl. depsos raya no.20, rt.7/rw.9, bintaro, kota jakarta selatan",
        "place_id": "ChIJ6_849HLxaS4RGmSP-2LIumQ",
        "distance": 1907.636563645344,
        "store": "Alfamart"
    },
    {
        "nama_tempat": "alfamart kesehatan raya dekat sari indah",
        "rating_tempat": 0,
        "user_ratings_total": 0,
        "latitude": -6.2706111,
        "longitude": 106.7594005,
        "alamat_tempat": "circle k kesehatan, jl. kesehatan raya jl. rw. papan, rt.3/rw.6, bintaro, south jakarta city",
        "place_id": "ChIJi1XDcvTxaS4RTcqRw8n3ytE",
        "distance": 2682.775281604965,
        "store": "Alfamart"
    },
    {
        "nama_tempat": "alfamart kesehatan bintaro",
        "rating_tempat": 4.5,
        "user_ratings_total": 359,
        "latitude": -6.270978599999999,
        "longitude": 106.7638361,
        "alamat_tempat": "jl. kesehatan raya, rt.1/rw.11, bintaro, kota jakarta selatan",
        "place_id": "ChIJJ1GSGk7waS4RaM29vu-XutM",
        "distance": 2320.4781360363954,
        "store": "Alfamart"
    },
    {
        "nama_tempat": "pt. sumber alfaria trijaya (alfamart)",
        "rating_tempat": 0,
        "user_ratings_total": 0,
        "latitude": -6.2756386,
        "longitude": 106.762513,
        "alamat_tempat": "jl. rc. veteran raya no.16, rt.3/rw.1, bintaro, kota jakarta selatan",
        "place_id": "ChIJ6w2CLUnwaS4RyI1aYbJcdTg",
        "distance": 2789.73937906642,
        "store": "Alfamart"
    },
    {
        "nama_tempat": "alfamart",
        "rating_tempat": 4.1,
        "user_ratings_total": 21,
        "latitude": -6.274270899999999,
        "longitude": 106.7549809,
        "alamat_tempat": "jl. bintaro permai raya no.14 rt 4/3, rt.11/rw.11, bintaro, kota jakarta selatan",
        "place_id": "ChIJxRzCGnjxaS4RHQMj-rsrhgg",
        "distance": 0,
        "store": "Alfamart"
    },
    {
        "nama_tempat": "alfamart",
        "rating_tempat": 0,
        "user_ratings_total": 0,
        "latitude": -6.269869099999999,
        "longitude": 106.7545909,
        "alamat_tempat": "jl. mura raya no.7, rt.14/rw.8, bintaro, south jakarta city",
        "place_id": "ChIJy7Tf1pvxaS4RaY5OqcLjQBI",
        "distance": 0,
        "store": "Alfamart"
    },
    {
        "nama_tempat": "alfamart",
        "rating_tempat": 4.3,
        "user_ratings_total": 102,
        "latitude": -6.272520099999999,
        "longitude": 106.8383983,
        "alamat_tempat": "jl. siaga raya no.17, rt.4/rw.4 kel, pejaten bar., kota jakarta selatan",
        "place_id": "ChIJxRVKKDnyaS4RxtZdiPBr3f4",
        "distance": 2340.140136223024,
        "store": "Alfamart"
    },
    {
        "nama_tempat": "alfamart",
        "rating_tempat": 4.2,
        "user_ratings_total": 77,
        "latitude": -6.261753499999999,
        "longitude": 106.8336621,
        "alamat_tempat": "jl. kalibata tengah kel no.60, rt.10/rw.7, kalibata, kota jakarta selatan",
        "place_id": "ChIJAd72qmHzaS4RFQV01cn-_Vg",
        "distance": 1426.6858426888564,
        "store": "Alfamart"
    },
    {
        "nama_tempat": "alfamart",
        "rating_tempat": 4.1,
        "user_ratings_total": 48,
        "latitude": -6.2658257,
        "longitude": 106.8352335,
        "alamat_tempat": "jl.warung jati no.2, kel no.9, rt.4/rw.9, kalibata, kota jakarta selatan",
        "place_id": "ChIJa4P60zDyaS4R4wTgs1-cS5k",
        "distance": 1690.2976222460013,
        "store": "Alfamart"
    },
    {
        "nama_tempat": "alfamart",
        "rating_tempat": 4.5,
        "user_ratings_total": 81,
        "latitude": -6.2692393,
        "longitude": 106.8377635,
        "alamat_tempat": "jl. siaga raya no.kel, rt.12/rw.0, pejaten bar., kota jakarta selatan",
        "place_id": "ChIJZ4vwWCzzaS4R9YOSWsktFtA",
        "distance": 2096.042724625516,
        "store": "Alfamart"
    },
    {
        "nama_tempat": "alfamart",
        "rating_tempat": 4.2,
        "user_ratings_total": 161,
        "latitude": -6.2499501,
        "longitude": 106.8363977,
        "alamat_tempat": "jl. pancoran barat vii kel no.22, rt.9/rw.6, kalibata, kota jakarta selatan",
        "place_id": "ChIJ6RtK2MjzaS4RUM3_G2pv1Kc",
        "distance": 2107.844565957333,
        "store": "Alfamart"
    },
    {
        "nama_tempat": "alfamart pejaten 2",
        "rating_tempat": 4.2,
        "user_ratings_total": 13,
        "latitude": -6.2795707,
        "longitude": 106.8349757,
        "alamat_tempat": "jl. pejaten raya (graha pejaten) no. 5 j-k, rt.7/rw.7, kel, kota jakarta selatan",
        "place_id": "ChIJnX2VLibzaS4RTmYUIBuSA9A",
        "distance": 2607.288302513514,
        "store": "Alfamart"
    },
    {
        "nama_tempat": "alfamart",
        "rating_tempat": 4.5,
        "user_ratings_total": 19,
        "latitude": -6.253404799999999,
        "longitude": 106.8401304,
        "alamat_tempat": "jl. duren tiga selatan no.88, rt.1/rw.001 kel, pancoran, kota jakarta selatan",
        "place_id": "ChIJAXBtHt7zaS4RqSjmY_L6_Tg",
        "distance": 2292.242064135742,
        "store": "Alfamart"
    },
    {
        "nama_tempat": "alfamart siaga raya",
        "rating_tempat": 4.3,
        "user_ratings_total": 95,
        "latitude": -6.2691579,
        "longitude": 106.8378314,
        "alamat_tempat": "prjq+84j, rt.12/rw.4, west pejaten, south jakarta city",
        "place_id": "ChIJaYELyDnyaS4RCGjPIh_HyzU",
        "distance": 2098.758725235611,
        "store": "Alfamart"
    },
    {
        "nama_tempat": "alfamart",
        "rating_tempat": 2.8,
        "user_ratings_total": 4,
        "latitude": -6.279772899999999,
        "longitude": 106.8375655,
        "alamat_tempat": "jl. raya jatipadang no.kel, rt.8/rw.10, jati padang, kota jakarta selatan",
        "place_id": "ChIJIXz_vBXyaS4RCwm7-7rVjP4",
        "distance": 2805.6847703895573,
        "store": "Alfamart"
    },
    {
        "nama_tempat": "alfamart",
        "rating_tempat": 4.3,
        "user_ratings_total": 119,
        "latitude": -6.2661947,
        "longitude": 106.8408908,
        "alamat_tempat": "jl. h. samali kel no.3, rt.1/rw.4, pejaten bar., kota jakarta selatan",
        "place_id": "ChIJkah0xDfyaS4RVVK-oIB1NjA",
        "distance": 2300.4810050184456,
        "store": "Alfamart"
    },
    {
        "nama_tempat": "alfamart rasamala",
        "rating_tempat": 5,
        "user_ratings_total": 2,
        "latitude": -6.234524,
        "longitude": 106.839845,
        "alamat_tempat": "jl. rasamala raya no.29, rt.1/rw.9, menteng dalam, kota jakarta selatan",
        "place_id": "ChIJEYL_Dc7zaS4RB34juQUJWKA",
        "distance": 1956.0405829877973,
        "store": "Alfamart"
    },
    {
        "nama_tempat": "alfamart menteng atas selatan 3",
        "rating_tempat": 3.5,
        "user_ratings_total": 8,
        "latitude": -6.2177142,
        "longitude": 106.8386021,
        "alamat_tempat": "qrjq+wc9, rt.9/rw.4, menteng atas, south jakarta city",
        "place_id": "ChIJ3YwKPTbzaS4RVeL7N3tKQps",
        "distance": 2762.397203907404,
        "store": "Alfamart"
    },
    {
        "nama_tempat": "alfamart",
        "rating_tempat": 4.3,
        "user_ratings_total": 185,
        "latitude": -6.2614857,
        "longitude": 106.8419188,
        "alamat_tempat": "jl. kalibata tengah kel no.rt. 001 / 07, rt.2/rw.7, kalibata, kota jakarta selatan",
        "place_id": "ChIJxx6tdpbzaS4RZ-Qlex8c2vI",
        "distance": 2469.6799059424275,
        "store": "Alfamart"
    },
    {
        "nama_tempat": "alfamart",
        "rating_tempat": 0,
        "user_ratings_total": 0,
        "latitude": -6.247007399999999,
        "longitude": 106.8432948,
        "alamat_tempat": "gedung l'avenue shop 1, jl. raya pasar minggu kel no.kav.16, rt.1/rw.4, kalibata, kota jakarta selatan",
        "place_id": "ChIJP1-5SVPzaS4RG7CXt6z9WAA",
        "distance": 1706.118735508706,
        "store": "Alfamart"
    },
    {
        "nama_tempat": "alfamart",
        "rating_tempat": 4.3,
        "user_ratings_total": 68,
        "latitude": -6.2295531,
        "longitude": 106.8467864,
        "alamat_tempat": "jl dr soepomo sh no 73d menten, rt.2/rw.15, menteng dalam, kota jakarta selatan",
        "place_id": "ChIJFRyV05PzaS4RMYjyqWOO87o",
        "distance": 2610.1730385312985,
        "store": "Alfamart"
    },
    {
        "nama_tempat": "alfamart",
        "rating_tempat": 4.1,
        "user_ratings_total": 22,
        "latitude": -6.2624146,
        "longitude": 106.8482494,
        "alamat_tempat": "jl. empang tiga no.99 rt.14, rw no.kel, rt.14/rw.1, pejaten tim., kota jakarta selatan",
        "place_id": "ChIJldgfBQDzaS4RQD2w0HmvqT0",
        "distance": 3021.52895737293,
        "store": "Alfamart"
    },
    {
        "nama_tempat": "alfamart pancoran barat vii",
        "rating_tempat": 4.6,
        "user_ratings_total": 27,
        "latitude": -6.252869899999999,
        "longitude": 106.8376863,
        "alamat_tempat": "jl. pancoran barat vii no.7a, rt.15/rw.1, pancoran, kota jakarta selatan",
        "place_id": "ChIJR3f96NbzaS4RlJ7hhGiIRj4",
        "distance": 1443.771776773503,
        "store": "Alfamart"
    },
    {
        "nama_tempat": "alfamart",
        "rating_tempat": 4.2,
        "user_ratings_total": 30,
        "latitude": -6.2679459,
        "longitude": 106.8470626,
        "alamat_tempat": "jl. batu i kel no.3, rt.4/rw.1, pejaten tim., kota jakarta selatan",
        "place_id": "ChIJ7etgAUbyaS4Rltk4NYMESVU",
        "distance": 2959.3875194599664,
        "store": "Alfamart"
    },
    {
        "nama_tempat": "alfamart pasar manggis",
        "rating_tempat": 4.8,
        "user_ratings_total": 5,
        "latitude": -6.2140038,
        "longitude": 106.8427878,
        "alamat_tempat": "jl. payakumbuh no.56, rt.11/rw.9, ps. manggis, kota jakarta selatan",
        "place_id": "ChIJ41SXHGn1aS4R33isZf_v_DY",
        "distance": 0,
        "store": "Alfamart"
    },
    {
        "nama_tempat": "alfamart minangkabau",
        "rating_tempat": 4.5,
        "user_ratings_total": 146,
        "latitude": -6.2125368,
        "longitude": 106.8445336,
        "alamat_tempat": "jl. minangkabau barat no.2, rw.10, ps. manggis, kota jakarta selatan",
        "place_id": "ChIJ2wTpYf71aS4RoHjLXsoGgMw",
        "distance": 0,
        "store": "Alfamart"
    },
    {
        "nama_tempat": "alfamart",
        "rating_tempat": 3.8,
        "user_ratings_total": 6,
        "latitude": -6.217207399999999,
        "longitude": 106.8442193,
        "alamat_tempat": "jl.dr. saharjo no. 96, kel no.1, rt.1/rw.7, menteng atas, kota jakarta selatan",
        "place_id": "ChIJpTDO7ojzaS4Rr4Rj2cGIbD4",
        "distance": 0,
        "store": "Alfamart"
    },
    {
        "nama_tempat": "alfamart muria tanjakan",
        "rating_tempat": 4.6,
        "user_ratings_total": 35,
        "latitude": -6.2119276,
        "longitude": 106.8380365,
        "alamat_tempat": "jl. muria tanjakan gg. c2 no.6, rt.1/rw.12, ps. manggis, kota jakarta selatan",
        "place_id": "ChIJ5Si0x671aS4RNBFEQK-tApQ",
        "distance": 0,
        "store": "Alfamart"
    },
    {
        "nama_tempat": "alfamart sawah lunto",
        "rating_tempat": 4.6,
        "user_ratings_total": 169,
        "latitude": -6.214008799999999,
        "longitude": 106.842788,
        "alamat_tempat": "11, jl. minangkabau barat no.58d, rt.11/rw.9, ps. manggis, kota jakarta selatan",
        "place_id": "ChIJaSlK6PT1aS4RrBHGJkrlQ1k",
        "distance": 0,
        "store": "Alfamart"
    },